city,longitude,latitude,coordinates
Brochet,-101.6624986965198,57.887499076687824,"[-101.66249869651979, 57.887499076687824]"
Eagle,-141.19583180956684,64.78749860808087,"[-141.19583180956684, 64.78749860808087]"
Emmonak,-164.52083205022632,62.78749817341536,"[-164.52083205022632, 62.78749817341536]"
Lavrentiya,-171.01249839218264,65.58750146820871,"[-171.01249839218264, 65.58750146820871]"
Lutselke,-110.73750060159212,62.4041671053112,"[-110.73750060159212, 62.4041671053112]"
Mekoryuk,-166.19583313394725,60.3874985335023,"[-166.19583313394725, 60.3874985335023]"
Nenana,-149.08749980724662,64.56250130172202,"[-149.08749980724662, 64.56250130172202]"
Salluit,-75.662501575438,62.1791653095961,"[-75.662501575438, 62.1791653095961]"
Schefferville,-66.81250140644563,54.80416675453914,"[-66.81250140644563, 54.80416675453914]"
Stony Rapids,-105.83750143000243,59.25416672567887,"[-105.83750143000243, 59.25416672567887]"
Teller,-166.3624987138708,65.26249990001543,"[-166.3624987138708, 65.26249990001543]"
Al Jaghbub,24.52083299636283,29.7458315090378,"[24.52083299636283, 29.745831509037796]"
Calais1,-67.24583239889185,45.16250003126233,"[-67.24583239889185, 45.16250003126233]"
Chonchi,-73.80416674865768,-42.60416663854243,"[-73.80416674865768, -42.60416663854243]"
Comondante Luis Piedrabuena,-68.91250170520676,-49.97916747661613,"[-68.91250170520676, -49.97916747661613]"
Danjiangkou,111.49583320775442,32.520832647758844,"[111.49583320775442, 32.520832647758844]"
Dirj,10.462500284801878,30.16249884360065,"[10.462500284801878, 30.16249884360065]"
Gubkin,37.3958341077665,51.279164878246725,"[37.395834107766504, 51.279164878246725]"
Meningie,139.33750144424593,-35.6958329883504,"[139.33750144424593, -35.6958329883504]"
Port Hope Simpson,-56.2958320188768,52.54583493852282,"[-56.2958320188768, 52.54583493852282]"
Punta del Este,-54.95416652148616,-34.97083221529884,"[-54.95416652148616, -34.97083221529884]"
Queenstown2,168.6624985946826,-45.02916846652532,"[168.6624985946826, -45.02916846652532]"
Sharbaqty,78.15416695747304,52.495835079006085,"[78.15416695747304, 52.495835079006085]"
Southern Cross,119.320833146149,-31.229164869698536,"[119.320833146149, -31.229164869698536]"
Waitakere,174.55416611581228,-36.85416697235197,"[174.55416611581228, -36.85416697235197]"
Westport,171.56250175264867,-41.754168308731074,"[171.56250175264867, -41.754168308731074]"
Apodi,-37.79583325345418,-5.662498745079519,"[-37.795833253454184, -5.662498745079519]"
Bertoua,13.687498265149973,4.579166791670312,"[13.687498265149971, 4.579166791670312]"
Bocas del Toro,-82.24583363019724,9.337500282995215,"[-82.24583363019724, 9.337500282995215]"
Cuevo,-63.52083314183402,-20.45416634146519,"[-63.52083314183402, -20.45416634146519]"
Dibaya,22.862500016180675,-6.520833298391108,"[22.862500016180675, -6.520833298391108]"
Fada,21.58750035173377,17.18750021132608,"[21.587500351733766, 17.18750021132608]"
Guaranda,-79.01249930178938,-1.6125001031253787,"[-79.01249930178938, -1.6125001031253787]"
Jaque,-78.1625010171333,7.520833559349237,"[-78.1625010171333, 7.520833559349237]"
Lethem,-59.80416793508386,3.3791669775649176,"[-59.80416793508386, 3.3791669775649176]"
Manyoni,34.90416641436088,-5.787500702136914,"[34.90416641436088, -5.787500702136914]"
Muisne,-80.02083366417334,0.612499892189086,"[-80.02083366417334, 0.612499892189086]"
Nimule,32.04583362831294,3.595834698671743,"[32.04583362831294, 3.595834698671743]"
Pala,14.979166095960684,9.34583212263737,"[14.979166095960684, 9.34583212263737]"
Panda,34.729166740469566,-24.062499883152523,"[34.729166740469566, -24.062499883152523]"
Portel,-50.820831764321575,-1.9374994754354584,"[-50.820831764321575, -1.9374994754354586]"
Roura,-52.32916726525226,4.720834676890626,"[-52.32916726525226, 4.720834676890626]"
San Juan del Sur,-85.8708330692938,11.254166874577551,"[-85.8708330692938, 11.254166874577553]"
Sand Point,-160.49583340393988,55.33333228491144,"[-160.49583340393988, 55.33333228491144]"
Sanming,117.57916622121826,26.229165931391,"[117.57916622121826, 26.229165931390998]"
Santa Cruz Cabralia,-39.02083304633732,-16.279167962906197,"[-39.02083304633732, -16.279167962906197]"
Tarapoto,-76.47916809433828,-6.512501492766479,"[-76.47916809433828, -6.512501492766479]"
Tarma,-75.72083327855074,-11.412500633061624,"[-75.72083327855074, -11.412500633061624]"
Tournavista,-74.71249897573632,-8.929164800574103,"[-74.71249897573632, -8.929164800574103]"
Yelimane,-10.570831897606936,15.120831738367915,"[-10.570831897606935, 15.120831738367917]"
Baltasar Brum,-57.32916622513618,-30.72499865506907,"[-57.32916622513618, -30.72499865506907]"
Mandali,45.55000042330365,33.74583249711241,"[45.55000042330365, 33.74583249711241]"
Mendocino,-123.80000014530911,39.30416661521927,"[-123.80000014530913, 39.30416661521927]"
Morawa,116.0083342020542,-29.21250092099426,"[116.00833420205421, -29.21250092099426]"
Paso Rio Mayo,-70.25833192227721,-45.68750131661892,"[-70.25833192227721, -45.68750131661892]"
Pukatawagan,-101.3166664066218,55.74583308446677,"[-101.31666640662179, 55.745833084466774]"
Selawik,-160.0180564267675,66.60138846494814,"[-160.0180564267675, 66.60138846494814]"
Sherlovaya Gora,116.29999955390493,50.529166447673255,"[116.29999955390491, 50.529166447673255]"
Tununak,-165.2499998180441,60.57916636841331,"[-165.2499998180441, 60.57916636841331]"
Wallace,-115.92500027713658,47.470834040834376,"[-115.92500027713658, 47.470834040834376]"
Eastmain,-78.51666814914314,52.23333412836813,"[-78.51666814914314, 52.23333412836813]"
Neryungri,124.71249940110954,56.66249948636496,"[124.71249940110954, 56.66249948636496]"
Hopedale,-60.220834244926,55.459724485620406,"[-60.220834244926, 55.459724485620406]"
Arroyos y Esteros,-57.09999964333295,-25.054166084015343,"[-57.09999964333295, -25.054166084015346]"
Besalampy,44.49166622835984,-16.74583524783571,"[44.49166622835984, -16.74583524783571]"
Dangriga,-88.22083284252992,16.966665407113673,"[-88.22083284252992, 16.966665407113673]"
Manja,44.32916542716423,-21.433333519101453,"[44.32916542716423, -21.433333519101453]"
Nacaome,-87.48750026314069,13.53333374545063,"[-87.48750026314069, 13.53333374545063]"
Plumtree,27.808332013854063,-20.48750037447637,"[27.808332013854066, -20.487500374476372]"
Quime,-67.21666763393524,-16.9791666118902,"[-67.21666763393524, -16.9791666118902]"
Sica Sica,-67.73750176746942,-17.333332815391117,"[-67.73750176746942, -17.333332815391117]"
Tinogasta,-67.56249992442295,-28.066665467136115,"[-67.56249992442295, -28.066665467136115]"
Trancas,-65.28333296522239,-26.229165989747,"[-65.28333296522239, -26.229165989747]"
Barras,-42.295833184888025,-4.250000411493156,"[-42.295833184888025, -4.250000411493156]"
Calbuco,-73.14861275134295,-41.75694444729091,"[-73.14861275134295, -41.75694444729091]"
Chosica,-76.70833242888901,-11.93750184176442,"[-76.70833242888901, -11.937501841764421]"
Dillingham,-158.46666590916368,59.04166560848685,"[-158.46666590916368, 59.04166560848685]"
Hoskins,150.40416531876457,-5.458332066593736,"[150.40416531876457, -5.458332066593736]"
Koidu,-10.862501693441727,8.433332798537785,"[-10.862501693441729, 8.433332798537785]"
Kumo,11.216668023902733,10.045835245858669,"[11.216668023902733, 10.045835245858667]"
Luebo,21.41666549840373,-5.345833446736581,"[21.41666549840373, -5.345833446736581]"
Otuzco,-78.56666725298332,-7.904166881346435,"[-78.56666725298332, -7.904166881346435]"
Sinnamary,-52.95416825962994,5.375000397170182,"[-52.95416825962994, 5.375000397170182]"
Thessalon,-83.55833211415049,46.2583328005629,"[-83.55833211415049, 46.2583328005629]"
Betanzos,-65.45138769504767,-19.55139004705086,"[-65.45138769504767, -19.55139004705086]"
Cap-Chat,-66.68749943137851,49.0958331330572,"[-66.68749943137851, 49.0958331330572]"
Celeken,53.11805556641861,39.44305571523709,"[53.11805556641861, 39.443055715237094]"
Chibia,13.69305436810696,-15.18472172620516,"[13.69305436810696, -15.184721726205161]"
Comallo,-70.26249896932919,-41.02916775018629,"[-70.26249896932919, -41.02916775018629]"
Combarbala,-71.00138951662186,-31.176388563008725,"[-71.00138951662186, -31.176388563008725]"
El Qasr,28.88194296968833,25.693057041436884,"[28.881942969688332, 25.693057041436884]"
Esperanza,-109.92916812707564,27.58749909434999,"[-109.92916812707564, 27.58749909434999]"
Geita,32.17500039973867,-2.875000933655461,"[32.17500039973867, -2.875000933655461]"
La Scie,-55.59999968612346,49.96249874355682,"[-55.59999968612346, 49.96249874355682]"
Loreto,-111.3486111329825,26.006944575601533,"[-111.3486111329825, 26.006944575601533]"
Ondjiva,15.72638864031954,-17.068054766113306,"[15.726388640319541, -17.068054766113306]"
Phayao,99.90694428556505,19.16805400730359,"[99.90694428556505, 19.16805400730359]"
Scottsdale1,147.5152784932121,-41.15972094082353,"[147.51527849321207, -41.15972094082353]"
Tarabuco,-64.91250076868218,-19.17916636525929,"[-64.91250076868218, -19.17916636525929]"
Villa Rumipal,-64.48472152115563,-32.184723349088785,"[-64.48472152115563, -32.184723349088785]"
Winton,143.0402766400178,-22.39027672804671,"[143.0402766400178, -22.39027672804671]"
Baddeck,-60.75416782690128,46.099999111229046,"[-60.75416782690128, 46.099999111229046]"
Tonopah,-117.22916631292205,38.06527890898106,"[-117.22916631292205, 38.06527890898106]"
Zelenodolsk,48.66249952148496,55.83333362066134,"[48.66249952148496, 55.83333362066134]"
Finnsnes,17.985119423681546,69.232737966696,"[17.985119423681546, 69.232737966696]"
Brownsweg,-55.16666720448245,5.0166670405710665,"[-55.16666720448245, 5.0166670405710665]"
Buurhakaba,44.083332980856014,2.7999988588710347,"[44.083332980856014, 2.7999988588710347]"
Chumbicha,-66.23333331086296,-28.8583343166232,"[-66.23333331086296, -28.858334316623196]"
Cloncurry,140.50833429222664,-20.708332829110745,"[140.50833429222664, -20.708332829110745]"
Dondo2,14.423611129578024,-9.684723799112891,"[14.423611129578024, -9.684723799112893]"
Huaura,-77.60000105011747,-11.066666092550834,"[-77.60000105011747, -11.066666092550834]"
Kambove,26.59861178365546,-10.876389069546237,"[26.59861178365546, -10.876389069546237]"
Karasburg,18.750000477912884,-28.016665619469297,"[18.750000477912884, -28.016665619469297]"
Kasane,25.149998766892605,-17.800000082045592,"[25.149998766892605, -17.800000082045592]"
Koulikoro,-7.543055265897836,12.884722344398517,"[-7.543055265897836, 12.884722344398517]"
Kualakapuas,114.35694401414943,-3.0819455880751527,"[114.35694401414945, -3.0819455880751527]"
Maria Elena,-69.66666719660769,-22.34166582121942,"[-69.66666719660769, -22.34166582121942]"
Maridi,29.468056212547253,4.915278228327011,"[29.468056212547253, 4.915278228327011]"
Mpwapwa,36.48472373814963,-6.348611670389111,"[36.48472373814963, -6.3486116703891105]"
Oum Hadjer,19.69166668263486,13.291666080018398,"[19.69166668263486, 13.291666080018398]"
Quixada,-39.01666599576219,-4.966667140740819,"[-39.01666599576219, -4.966667140740819]"
San Luis1,-89.44166560862197,16.199998826725153,"[-89.44166560862197, 16.199998826725153]"
Santa Cruz2,-36.02361081067261,-6.22638723126114,"[-36.02361081067261, -6.22638723126114]"
Thongwa,96.5250011481494,16.758333979159662,"[96.52500114814939, 16.758333979159662]"
Uncia,-66.56666669847877,-18.46666688676989,"[-66.56666669847877, -18.46666688676989]"
Van Horn,-104.83333201009542,31.041666225856893,"[-104.83333201009542, 31.041666225856893]"
Vicente Guerrero,-116.00833420202795,30.76666684215427,"[-116.00833420202795, 30.76666684215427]"
Wagin,117.34166783725586,-33.308334436887414,"[117.34166783725586, -33.308334436887414]"
Aqadyr,72.86416627646568,48.26583219615539,"[72.86416627646568, 48.26583219615539]"
Oatlands,147.3708339063833,-42.300000730257416,"[147.3708339063833, -42.300000730257416]"
Santa Barbara3,-72.02250154111736,-37.66749963673584,"[-72.02250154111736, -37.66749963673584]"
Villarica,-72.22583377991464,-39.27749929380542,"[-72.22583377991464, -39.27749929380542]"
White Sulphur Springs,-80.30416758870933,37.79166612420476,"[-80.30416758870933, 37.79166612420476]"
Aigua,-54.76250040343969,-34.20208179603782,"[-54.76250040343969, -34.20208179603782]"
Barcaldine,145.2854170745806,-23.556250121451065,"[145.2854170745806, -23.556250121451065]"
Bosobolo,19.87500039400527,4.187500533443,"[19.87500039400527, 4.187500533443]"
Eseka,10.777081791449314,3.6458329019812985,"[10.777081791449314, 3.6458329019812985]"
Geraldton2,-86.95138983566638,49.7194433575561,"[-86.95138983566638, 49.7194433575561]"
La Paloma,-54.16249992194123,-34.660416606516804,"[-54.16249992194123, -34.660416606516804]"
Libenge,18.63750118488775,3.658332908899691,"[18.63750118488775, 3.658332908899691]"
Masindi-Port,32.06666709824822,1.7041663893896313,"[32.06666709824822, 1.7041663893896313]"
Saint-Laurent-du-Maroni,-54.033333222786446,5.495834180399626,"[-54.033333222786446, 5.495834180399626]"
Salinas2,-80.98749987464329,-2.200000056782271,"[-80.98749987464329, -2.200000056782271]"
Tranqueras,-55.768750052513774,-31.18958287242392,"[-55.768750052513774, -31.189582872423916]"
Urubamba,-72.11249985690164,-13.308334252453337,"[-72.11249985690164, -13.308334252453335]"
Uspallata,-69.34583266079206,-32.59375121473808,"[-69.34583266079206, -32.59375121473808]"
General Conesa,-64.4558347927646,-40.10416692350745,"[-64.4558347927646, -40.10416692350745]"
Lac La Biche,-111.97321378575911,54.76726057561497,"[-111.97321378575911, 54.76726057561497]"
Donegal,-8.110119188862202,54.65059495966304,"[-8.110119188862202, 54.65059495966304]"
Angra do Heroismo,-27.22083430648229,38.65833261920424,"[-27.22083430648229, 38.65833261920424]"
Almirante,-82.39750009279176,9.29916586247878,"[-82.39750009279176, 9.299165862478779]"
Bossembele,17.644166618999993,5.265833163636519,"[17.644166618999993, 5.265833163636519]"
Lamas,-76.5158333702332,-6.4191667325332125,"[-76.5158333702332, -6.4191667325332125]"
Paraiso,-93.2158336566699,18.39416668127897,"[-93.2158336566699, 18.394166681278975]"
Peto,-88.92416740165235,20.12749951901287,"[-88.92416740165235, 20.12749951901287]"
Puquio,-74.12250096130273,-14.6908343925419,"[-74.12250096130273, -14.6908343925419]"
Santo Tomas,-72.08249948745392,-14.452500818990952,"[-72.08249948745392, -14.452500818990952]"
Vergara,-53.93916666132816,-32.94250002295416,"[-53.93916666132816, -32.94250002295416]"
Bekiy,45.31750078737524,-24.217499215843016,"[45.31750078737524, -24.217499215843016]"
Chernogorsk,91.22500057434594,53.81666752616553,"[91.22500057434594, 53.81666752616553]"
Eumseong,127.69027807321346,36.92777785299495,"[127.69027807321346, 36.92777785299495]"
Gimli,-96.9895838526275,50.63333233022922,"[-96.9895838526275, 50.63333233022922]"
Lead,-103.76845214850538,44.35059587942141,"[-103.76845214850538, 44.35059587942141]"
Mount Barker,117.6625001558462,-34.62916674011534,"[117.66250015584619, -34.62916674011534]"
Babati,35.745832940980705,-4.21083326308747,"[35.745832940980705, -4.21083326308747]"
Balancan,-91.53750001997376,17.802500909145316,"[-91.53750001997376, 17.802500909145316]"
Happy Valley,-60.31369039577806,53.30178628641577,"[-60.31369039577806, 53.30178628641577]"
Hardin,-107.61250088901252,45.732736633302046,"[-107.61250088901252, 45.732736633302046]"
Kafue,28.179167507149817,-15.777499872142348,"[28.179167507149817, -15.777499872142347]"
Nova Vicosa,-39.37249914829681,-17.894167599034414,"[-39.37249914829681, -17.894167599034414]"
Oshikango,15.89749943647274,-17.397500868912037,"[15.89749943647274, -17.397500868912037]"
Roebourne,117.13916531197924,-20.769165632969464,"[117.13916531197923, -20.769165632969464]"
General Roca,-67.63750070966351,-39.0166662621948,"[-67.63750070966351, -39.0166662621948]"
Knysna,23.04444226615938,-34.03472261455372,"[23.04444226615938, -34.03472261455372]"
Liverpool1,-64.7196422868996,44.03511941727648,"[-64.7196422868996, 44.03511941727648]"
Vilyuysk,121.6216641474134,63.75083285150746,"[121.6216641474134, 63.75083285150746]"
Sonson,-75.30833297648448,5.712500808234915,"[-75.30833297648448, 5.712500808234915]"
Villanueva,-102.8833336659527,22.35416673580879,"[-102.8833336659527, 22.35416673580879]"
Byron Bay,153.61488051413303,-28.65297658681504,"[153.61488051413303, -28.65297658681504]"
Collipulli,-72.43645802478997,-37.95312528276056,"[-72.43645802478997, -37.95312528276056]"
Kimhyonggwon,128.15654885828326,40.81607154427375,"[128.15654885828326, 40.81607154427375]"
San Lorenzo1,-58.766667006186026,-28.133333090270146,"[-58.766667006186026, -28.133333090270146]"
Abra Pampa,-65.69722213411728,-22.722223646425658,"[-65.69722213411728, -22.722223646425658]"
Bogue,-14.273611243546824,16.591665936179176,"[-14.273611243546823, 16.591665936179176]"
Caazapa,-56.36845289203752,-26.19583394022552,"[-56.368452892037524, -26.19583394022552]"
Canatlan,-104.77499943711888,24.52500011098048,"[-104.77499943711888, 24.52500011098048]"
Illizi,8.479165389401654,26.50416741315492,"[8.479165389401654, 26.504167413154917]"
Mendi,143.64861183318072,-6.1361118831668735,"[143.64861183318072, -6.1361118831668735]"
Osakarovka,72.58194499526137,50.5652768637095,"[72.58194499526137, 50.5652768637095]"
Pampa del Infierno,-61.17321453383358,-26.50416738167971,"[-61.17321453383358, -26.50416738167971]"
Paraguari,-57.14821357350981,-25.620832841792065,"[-57.148213573509814, -25.620832841792065]"
Puerto Baquerizo Moreno,-89.60972292110824,-0.9055554627345463,"[-89.60972292110824, -0.9055554627345465]"
San Carlos,-63.730555220444685,-17.405554871953225,"[-63.730555220444685, -17.405554871953225]"
San Pedro2,-57.076785553100905,-24.087499641910767,"[-57.076785553100905, -24.087499641910767]"
Ypacarai|Ita,-57.28869099061532,-25.401786386035283,"[-57.28869099061532, -25.401786386035283]"
Nueva Imperial,-72.94940477848971,-38.74464270458181,"[-72.94940477848971, -38.74464270458181]"
Quirihue,-72.54226245530626,-36.28035693501713,"[-72.54226245530626, -36.28035693501713]"
Singleton,151.17440505494608,-32.569641783824125,"[151.17440505494608, -32.569641783824125]"
Boaco,-85.6513901667465,12.473608955036577,"[-85.6513901667465, 12.473608955036575]"
Chosan,125.80625210318954,40.82916437540264,"[125.80625210318954, 40.82916437540264]"
Motupe,-79.71388957068044,-6.161110342830068,"[-79.71388957068044, -6.161110342830068]"
Si Racha,100.93333357116931,13.162501241034509,"[100.93333357116933, 13.162501241034509]"
Stawell,142.767707878526,-37.05625051072127,"[142.767707878526, -37.05625051072127]"
Tom Price,117.79027828912642,-22.68888846797352,"[117.79027828912642, -22.68888846797352]"
Ambanja,48.452779442945626,-13.6666645330779,"[48.452779442945626, -13.666664533077899]"
El Maiten,-71.16979203679503,-42.04270502605724,"[-71.16979203679503, -42.04270502605724]"
Loncoche,-72.63541537184896,-39.36562417988229,"[-72.63541537184896, -39.36562417988229]"
Anbyon,127.52202360405624,39.04463944274796,"[127.52202360405623, 39.04463944274796]"
Colac,143.58958294041554,-38.34791523541516,"[143.58958294041554, -38.34791523541516]"
Dillon,-112.63194515989028,45.21712941711237,"[-112.63194515989028, 45.21712941711237]"
Maqat,53.33437718519564,47.647918721776605,"[53.334377185195635, 47.647918721776605]"
Selfoss,-20.9990388642782,63.935576743891374,"[-20.999038864278198, 63.935576743891374]"
Severnyy,64.0958318373098,67.59999914049732,"[64.0958318373098, 67.59999914049732]"
Leeton,146.3968740911085,-34.55520833459133,"[146.3968740911085, -34.55520833459133]"
Acatlan,-98.05059572010832,18.20178481034721,"[-98.05059572010833, 18.20178481034721]"
Camiri,-63.521875047268615,-20.038540622127,"[-63.521875047268615, -20.038540622127]"
Forbes,148.00833228872656,-33.37916609863606,"[148.00833228872656, -33.37916609863606]"
Katima Mulilo,24.27921734271891,-17.50483159097282,"[24.27921734271891, -17.50483159097282]"
Polson,-114.15719779879394,47.68674162091468,"[-114.15719779879394, 47.68674162091468]"
Portachuelo,-63.395832559575744,-17.3541660184887,"[-63.395832559575744, -17.3541660184887]"
Reggane,0.1697912342240747,26.71979160213277,"[0.16979123422407472, 26.719791602132766]"
San Antonio de los Banos,-82.50178561017539,22.89226224025856,"[-82.50178561017539, 22.89226224025856]"
Tidjikdja,-11.430208053206664,18.553123547987905,"[-11.430208053206663, 18.553123547987905]"
Ubaitaba,-39.32083244828266,-14.314880387127548,"[-39.32083244828266, -14.314880387127548]"
Uyuni,-66.82187480229642,-20.461458275128205,"[-66.82187480229642, -20.461458275128205]"
Vegreville,-112.0511377969944,53.49658964910405,"[-112.0511377969944, 53.49658964910405]"
Chepes,-66.58958305453383,-31.34062492183392,"[-66.58958305453383, -31.340624921833918]"
El Daba,28.44583408222412,31.025000038113983,"[28.445834082224113, 31.025000038113983]"
San Juan Bautista,-57.14374990722419,-26.66874994430972,"[-57.14374990722419, -26.66874994430972]"
Ulladulla,150.4699070292563,-35.35694408551294,"[150.4699070292563, -35.35694408551294]"
Villa Hayes,-57.5249998932607,-25.09583344440501,"[-57.5249998932607, -25.09583344440501]"
Itapecuru Mirim,-44.35416826685393,-3.394642390812994,"[-44.35416826685393, -3.394642390812994]"
Kavieng,150.79583242373982,-2.5839285001383976,"[150.79583242373982, -2.5839285001383976]"
Makale,119.8505963796313,-3.100595419178784,"[119.8505963796313, -3.100595419178784]"
Tumut,148.22453532765144,-35.306943195991686,"[148.22453532765144, -35.306943195991686]"
Villa Union,-106.22187316156212,23.1906243795956,"[-106.22187316156212, 23.1906243795956]"
Comandante Fontana,-59.68124912574593,-25.33125106265806,"[-59.68124912574593, -25.33125106265806]"
Deer Lake,-57.42765214341527,49.18068165576405,"[-57.42765214341527, 49.18068165576405]"
Ely1,-114.8782417619028,39.24953766916085,"[-114.87824176190281, 39.249537669160844]"
Keflavik,-22.563011832755805,63.999475777598064,"[-22.563011832755805, 63.999475777598064]"
Chuquicamata,-68.92395728354138,-22.31249976384625,"[-68.92395728354138, -22.31249976384625]"
Uliastay,96.8491692891313,47.73999779352653,"[96.8491692891313, 47.739997793526534]"
Flin Flon,-101.858015588433,54.77403728460054,"[-101.85801558843299, 54.77403728460054]"
Coronel Bogado,-56.23750023735968,-27.16250010405824,"[-56.237500237359676, -27.16250010405824]"
Edea,10.128125107550805,3.794792513468751,"[10.128125107550805, 3.794792513468751]"
Powell,-108.75833307488372,44.75416636674829,"[-108.75833307488371, 44.754166366748294]"
Viacha,-68.29999955900905,-16.650000314043112,"[-68.29999955900905, -16.650000314043112]"
Ascension,-107.99583347170118,31.09416644167753,"[-107.99583347170118, 31.094166441677526]"
Santa Lucia,-56.38916709471504,-34.4541668684439,"[-56.389167094715035, -34.4541668684439]"
Ali Sabih,42.70520840634302,11.1520834059221,"[42.70520840634302, 11.1520834059221]"
Atherton,145.47812481923398,-17.266666927466424,"[145.47812481923398, -17.266666927466424]"
Bua Yai,102.42916714525512,15.589581967896937,"[102.42916714525511, 15.589581967896937]"
Caninde,-39.31354140287839,-4.358333120963465,"[-39.31354140287839, -4.358333120963465]"
Diamantina,-43.6010414600271,-18.244793087143563,"[-43.6010414600271, -18.244793087143563]"
Goodland,-101.70833349732284,39.34999976469513,"[-101.70833349732285, 39.34999976469513]"
Melville,-102.80224274104684,50.930447403185454,"[-102.80224274104684, 50.930447403185454]"
Nephi,-111.83144002063592,39.71477096441277,"[-111.83144002063592, 39.71477096441277]"
Pedro Luro,-62.68295627386401,-39.50568053882126,"[-62.68295627386401, -39.50568053882126]"
San Jose del Guaviare,-72.63958456775673,2.564582672129141,"[-72.63958456775673, 2.564582672129141]"
Tekax,-89.28472161129156,20.204167201337857,"[-89.28472161129156, 20.204167201337857]"
Artigas,-56.47583163267937,-30.41500055750916,"[-56.47583163267937, -30.41500055750916]"
Atoyac,-100.4337959001796,17.214352308336476,"[-100.4337959001796, 17.214352308336476]"
Changyon,125.09356194810576,38.25189356966356,"[125.09356194810576, 38.25189356966356]"
Grafton,152.940000305453,-29.72166577343068,"[152.940000305453, -29.721665773430676]"
Musina,30.036574033097683,-22.34120431125268,"[30.036574033097683, -22.34120431125268]"
Paso de los Toros,-56.51833476842847,-32.80749931538904,"[-56.51833476842847, -32.80749931538904]"
Rio Bueno,-72.95189395266048,-40.33598558668866,"[-72.95189395266048, -40.33598558668866]"
Shannon,-8.877381544569513,52.71249985383256,"[-8.877381544569513, 52.71249985383256]"
Swellendam,20.44000247226424,-34.02583196470165,"[20.44000247226424, -34.02583196470165]"
Houlton,-67.83958407127258,46.12777570139756,"[-67.83958407127258, 46.12777570139756]"
Kimpese,14.435416210900252,-5.563540810225903,"[14.435416210900252, -5.563540810225903]"
San Gabriel,-77.82604164321917,0.597916408587366,"[-77.82604164321917, 0.597916408587366]"
Stettler,-112.71250150015904,52.32202338000514,"[-112.71250150015905, 52.32202338000514]"
La Ligua,-71.23666611675402,-32.45250064699285,"[-71.23666611675402, -32.45250064699285]"
Nikolayevsk,45.458011786395446,50.02211461663083,"[45.458011786395446, 50.02211461663083]"
Nautla,-96.79120363258698,20.220835891959887,"[-96.79120363258698, 20.220835891959887]"
Chilecito,-67.4950770710252,-29.16552884307286,"[-67.4950770710252, -29.16552884307286]"
Izaz,37.04507478136868,36.584467484522655,"[37.04507478136868, 36.584467484522655]"
Camocim,-40.84675890022276,-2.90046273207246,"[-40.84675890022276, -2.9004627320724596]"
Campo Maior,-42.17361110118073,-4.828240165420284,"[-42.17361110118073, -4.828240165420284]"
Dalhart,-102.51666556229895,36.06041621950909,"[-102.51666556229897, 36.06041621950909]"
Doba,16.854167358602982,8.6583326808557,"[16.854167358602982, 8.6583326808557]"
Mollendo,-72.01333310639318,-17.019166363158206,"[-72.01333310639318, -17.019166363158206]"
Porto Nacional,-48.40879611820213,-10.70231280840941,"[-48.40879611820213, -10.70231280840941]"
Sao Lourenco do Sul,-51.97537720994357,-31.3647736851243,"[-51.975377209943574, -31.3647736851243]"
Selkirk,-96.87972415264618,50.1424988065394,"[-96.87972415264618, 50.1424988065394]"
Agordat,37.88083367543009,15.544167218864576,"[37.88083367543009, 15.544167218864576]"
Childress,-100.21249855436628,34.42569382565145,"[-100.21249855436628, 34.42569382565145]"
Demba,22.267129477219648,-5.494906963090775,"[22.267129477219648, -5.494906963090775]"
La Sarre,-79.20238001758446,48.79999711406606,"[-79.20238001758446, 48.79999711406606]"
Padangpanjang,100.39675902076068,-0.4662042307677997,"[100.39675902076067, -0.4662042307677997]"
Weyburn,-103.84761829649617,49.66428583389075,"[-103.84761829649615, 49.66428583389075]"
New Liskeard,-79.678528658154,47.50929293422055,"[-79.678528658154, 47.50929293422055]"
Zixing,113.40113538368372,25.976893004149503,"[113.40113538368371, 25.976893004149503]"
Kupina,77.2869777749543,54.36302030545215,"[77.2869777749543, 54.36302030545215]"
Puerto Varas,-72.9778880719959,-41.324678270701234,"[-72.9778880719959, -41.324678270701234]"
Rosario2,-44.25601747226605,-2.932869239481922,"[-44.25601747226605, -2.932869239481922]"
Yangambi,24.407868873176227,0.7699080565904963,"[24.407868873176227, 0.7699080565904963]"
Alayat Samail,57.97000015581663,23.29916800268192,"[57.97000015581663, 23.299168002681913]"
La Ronge,-105.28848754151788,55.10857488075209,"[-105.28848754151788, 55.10857488075209]"
Polyarnyy,33.44487134909922,69.19390809850593,"[33.44487134909922, 69.19390809850593]"
Guines,-82.02613744867878,22.838257280256595,"[-82.02613744867878, 22.838257280256595]"
Jijiga,42.796591512936736,9.35113674040926,"[42.796591512936736, 9.35113674040926]"
Businga,20.879925436766584,3.3503786063752496,"[20.879925436766584, 3.3503786063752496]"
Kaiapoi,172.655279979746,-43.3824986314738,"[172.655279979746, -43.3824986314738]"
Obidos,-55.51499997140201,-1.9050001588060144,"[-55.51499997140201, -1.9050001588060144]"
Richmond2,-112.086859302982,38.76634658739573,"[-112.086859302982, 38.766346587395724]"
Canas,-85.09356096557774,10.422350265158256,"[-85.09356096557774, 10.422350265158256]"
Hakkari,43.74134621050104,37.5810884608099,"[43.741346210501035, 37.5810884608099]"
Kirsanov,42.72279400763736,52.65661725920516,"[42.72279400763736, 52.65661725920516]"
Montpelier2,-72.57321502963296,44.25773632832786,"[-72.57321502963296, 44.25773632832786]"
San Antonio Oeste,-64.954166597745,-40.73333389770572,"[-64.954166597745, -40.73333389770572]"
St.-Benoit,55.71325671865981,-21.05037964835332,"[55.713256718659814, -21.05037964835332]"
Victoria5,-60.15224318775439,-32.61826884885539,"[-60.15224318775439, -32.61826884885539]"
Wuchuan,111.44762170655709,41.097022328665744,"[111.44762170655707, 41.097022328665744]"
Aliwal North,26.713888874611605,-30.69722160171004,"[26.713888874611605, -30.697221601710034]"
Curanilahue,-73.34327136975139,-37.47788378896096,"[-73.34327136975139, -37.47788378896096]"
Forster-Tuncurry,152.52361167325438,-32.201388293040225,"[152.52361167325438, -32.201388293040225]"
Lander,-108.73583284436388,42.8336096900623,"[-108.73583284436387, 42.8336096900623]"
Moengo,-54.39962094860989,5.617045560618324,"[-54.39962094860989, 5.617045560618324]"
Bakal,58.80284693019821,54.93969101585829,"[58.802846930198214, 54.939691015858294]"
Caibarien,-79.473612420889,22.513888449492978,"[-79.473612420889, 22.513888449492978]"
Jaguaquara,-39.97386383567584,-13.523863461457442,"[-39.97386383567584, -13.523863461457442]"
Miahuatlan,-96.59204394952006,16.334470049747438,"[-96.59204394952006, 16.334470049747438]"
Aranyaprathet,102.50189263745384,13.690531576946492,"[102.50189263745384, 13.690531576946492]"
Palmer,-149.11590651972784,61.60378473762409,"[-149.11590651972784, 61.60378473762409]"
Waku Kungo,15.111740874907248,-11.359468922664496,"[15.111740874907248, -11.359468922664497]"
Buyant-Uhaa,110.13694327409225,44.900831215294055,"[110.13694327409225, 44.900831215294055]"
Hermanus,19.220834205255493,-34.4208348859162,"[19.220834205255493, -34.4208348859162]"
Tillamook,-123.8336066938146,45.46083108087675,"[-123.83360669381459, 45.46083108087675]"
Amherst,-64.20781284137519,45.82656166851734,"[-64.20781284137519, 45.82656166851734]"
Miles City,-105.83651821270747,46.40759644751515,"[-105.83651821270747, 46.40759644751515]"
Tsumeb,17.70972165775288,-19.24791604577559,"[17.70972165775288, -19.24791604577559]"
Dimbokro,-4.706250014017092,6.649305506521131,"[-4.706250014017092, 6.649305506521131]"
Khromtau,58.43935089881198,50.25370289637559,"[58.43935089881198, 50.25370289637559]"
Mao,15.309027629354398,14.119445012654914,"[15.309027629354398, 14.119445012654914]"
Zhosaly,64.08333332211453,45.487499798127104,"[64.08333332211453, 45.487499798127104]"
Allende,-100.84839817755017,28.34198761104636,"[-100.84839817755017, 28.341987611046356]"
Almenara,-40.691666815389226,-16.17638832152988,"[-40.691666815389226, -16.17638832152988]"
Alpine,-103.66121863330604,30.360577806262977,"[-103.66121863330605, 30.360577806262977]"
General Guemes,-65.04647455993441,-24.67083325111636,"[-65.04647455993441, -24.670833251116353]"
Hamilton4,142.0273807347024,-37.73690438286168,"[142.0273807347024, -37.73690438286168]"
Iturama,-50.193749069151686,-19.72916648399268,"[-50.193749069151686, -19.72916648399268]"
Lapa,-49.71891106505332,-25.76314163715146,"[-49.71891106505332, -25.76314163715146]"
Swakopmund,14.532372296524551,-22.66570205785012,"[14.532372296524553, -22.66570205785012]"
Bugt,121.90787143104592,48.75509385776088,"[121.90787143104592, 48.75509385776088]"
Camrose,-112.83166849497296,53.01666696263541,"[-112.83166849497296, 53.01666696263541]"
Devils Lake,-98.86004868363509,48.112009523326776,"[-98.86004868363509, 48.112009523326776]"
Dryden,-92.83703609559198,49.78194285361886,"[-92.83703609559198, 49.78194285361886]"
Ende,121.6534727052472,-8.844443989166841,"[121.6534727052472, -8.844443989166841]"
Hon Quan,106.61180560197572,11.647917680453885,"[106.61180560197573, 11.647917680453885]"
Maryborough,143.73868985582888,-37.04702278972192,"[143.73868985582888, -37.04702278972192]"
Soyo,12.368750036109544,-6.1368057256348285,"[12.368750036109544, -6.1368057256348285]"
Ambatondrazaka,48.41944520781395,-17.827083973980223,"[48.41944520781395, -17.827083973980223]"
Ararat,142.92694496645962,-37.28416628231106,"[142.92694496645962, -37.28416628231106]"
Dalby,151.26314323145175,-27.18365322615928,"[151.26314323145175, -27.18365322615928]"
Ironwood,-90.16593550880576,46.45710640051718,"[-90.16593550880577, 46.45710640051718]"
Puerto Aisen,-72.6894611751641,-45.40220640854113,"[-72.6894611751641, -45.40220640854113]"
Sao Jose de Ribamar,-44.06944518748264,-2.5458324933064467,"[-44.06944518748264, -2.5458324933064467]"
Amos,-78.11481427261855,48.57592531539609,"[-78.11481427261855, 48.57592531539609]"
Parkes,148.17857048400424,-33.13511917792041,"[148.17857048400424, -33.13511917792041]"
Quarai,-56.454167127668754,-30.38044747013994,"[-56.454167127668754, -30.38044747013994]"
Slantsy,28.07650856255716,59.106814202824,"[28.076508562557162, 59.106814202824]"
Mongbwalu,30.03749872546574,1.95763842558256,"[30.03749872546574, 1.9576384255825596]"
Shemonaikha,81.91381577722444,50.63223644637716,"[81.91381577722444, 50.63223644637716]"
Abaza,90.09451305642185,52.64846476651025,"[90.09451305642185, 52.64846476651025]"
Punata,-65.83889000522841,-17.54791729142399,"[-65.83889000522841, -17.54791729142399]"
Akureyi,-18.108470159440543,65.68347247855927,"[-18.108470159440543, 65.68347247855927]"
Wetaskiwin,-113.36820550823066,52.97565675571918,"[-113.36820550823066, 52.97565675571918]"
Hervey Bay,152.86441668014194,-25.285577608490883,"[152.86441668014194, -25.285577608490883]"
Santa Vitoria do Palmar,-53.3604155859536,-33.52604123326911,"[-53.360415585953604, -33.52604123326911]"
Ash Shihr,49.60801440169925,14.764424300826596,"[49.60801440169925, 14.764424300826597]"
Kati,-8.066987637677455,12.738783333908833,"[-8.066987637677455, 12.738783333908833]"
Levin,175.2879901576645,-40.62426405729859,"[175.2879901576645, -40.62426405729859]"
Maracaju,-55.1613100952082,-21.620238601005347,"[-55.1613100952082, -21.620238601005347]"
Maroantsetra,49.73878221901968,-15.42980812580726,"[49.738782219019676, -15.42980812580726]"
Santa Rosa de Copan,-88.77788461818388,14.772756024826874,"[-88.77788461818388, 14.772756024826874]"
Shangdu,113.53995216439095,41.557106250522224,"[113.53995216439095, 41.557106250522224]"
Al Khums,14.263613876170844,32.64638788854773,"[14.263613876170844, 32.64638788854773]"
Timika,136.88621773194637,-4.542628354277356,"[136.88621773194635, -4.542628354277356]"
Alliance,-102.87453605100734,42.10323929673607,"[-102.87453605100734, 42.10323929673607]"
Markala,-6.071475054362423,13.682370277348893,"[-6.0714750543624225, 13.682370277348891]"
Santiago Ixcuintla,-105.20535454537612,21.81071364060172,"[-105.20535454537612, 21.81071364060172]"
Sunbury,144.72083256560703,-37.57760408888247,"[144.72083256560705, -37.57760408888247]"
Kapuskasing,-82.42166578077456,49.41624829642184,"[-82.42166578077456, 49.41624829642184]"
Mossel Bay,22.1187473467735,-34.18020782170791,"[22.1187473467735, -34.18020782170791]"
Narrabri,149.7697224374365,-30.33305652994524,"[149.7697224374365, -30.333056529945242]"
Truth or Consequences,-107.25194377488292,33.13361235841901,"[-107.25194377488292, 33.13361235841901]"
Cristalina,-47.61071433420001,-16.77023913681308,"[-47.61071433420001, -16.77023913681308]"
Guiglo,-7.502245115465234,6.541986451445076,"[-7.502245115465234, 6.541986451445076]"
La Union,-73.07573641755218,-40.2953433495347,"[-73.07573641755218, -40.2953433495347]"
Pichilemu,-72.00638851028772,-34.39138900371795,"[-72.00638851028772, -34.39138900371795]"
Bacabal,-44.78557671714755,-4.224678973700646,"[-44.78557671714755, -4.224678973700646]"
Gimbi,35.833655383751214,9.17147230316806,"[35.833655383751214, 9.171472303168061]"
Muswellbrook,150.89249937911268,-32.27083227646185,"[150.89249937911268, -32.27083227646185]"
Bongaree,153.15237764093774,-27.061901595688035,"[153.15237764093774, -27.061901595688035]"
Baie-Comeau,-68.17346527413227,49.21381704794917,"[-68.17346527413227, 49.21381704794917]"
Neiba,-71.42500023048109,18.489881105419425,"[-71.42500023048109, 18.489881105419425]"
Ngara,30.64518926564153,-2.465704764404032,"[30.645189265641534, -2.4657047644040317]"
Progreso,-89.65416725657475,21.283335449979035,"[-89.65416725657475, 21.283335449979035]"
Glendive,-104.71574840416017,47.11111022575886,"[-104.71574840416017, 47.11111022575886]"
Zaozernyy,94.7048625581765,55.963190152582726,"[94.7048625581765, 55.963190152582726]"
Bell Ville,-62.68652013731134,-32.62671509248997,"[-62.68652013731134, -32.62671509248997]"
Dawmat al Jandal,39.86093714934129,29.80729280697991,"[39.86093714934129, 29.80729280697991]"
Sefra,-0.5791658841904076,32.75208230769961,"[-0.5791658841904076, 32.75208230769961]"
Gualeguay,-59.31397111524896,-33.145833203364425,"[-59.313971115248954, -33.145833203364425]"
San Felipe2,-70.72239643680393,-32.74791651408711,"[-70.72239643680393, -32.74791651408711]"
Arvayheer,102.77500051581814,46.268332983845454,"[102.77500051581814, 46.268332983845454]"
Brumado,-41.67083410519516,-14.20476316078962,"[-41.67083410519516, -14.204763160789621]"
Chabahar,60.64305616434966,25.29638925155275,"[60.64305616434966, 25.29638925155275]"
Ingeniero Guillermo N. Juarez,-61.854165639394566,-23.89583274624927,"[-61.854165639394566, -23.89583274624927]"
Nanuque,-40.34972341207393,-17.84083194446513,"[-40.34972341207393, -17.84083194446513]"
Crookston,-96.60708639644808,47.77499783199977,"[-96.60708639644808, 47.77499783199977]"
Laguna,-48.782292701068194,-28.47656112643279,"[-48.782292701068194, -28.47656112643279]"
Novomoskovsk,38.21286238402292,54.08387649658093,"[38.21286238402292, 54.08387649658093]"
Sabinas Hidalgo,-100.17708353632746,26.497395569776664,"[-100.17708353632746, 26.497395569776664]"
Tsetserleg,101.46369290362586,47.47281579080269,"[101.46369290362586, 47.472815790802684]"
Zheleznogorsk,35.36286361888264,52.33786075144096,"[35.36286361888264, 52.337860751440964]"
Arcoverde,-37.05238115582795,-8.417263003036304,"[-37.05238115582795, -8.417263003036304]"
Esquel,-71.31820040856562,-42.91074539989621,"[-71.31820040856562, -42.91074539989621]"
Luwuk,122.79285749846449,-0.9547619347958648,"[122.79285749846449, -0.9547619347958648]"
Miracema,-42.200277877404346,-21.409166923207387,"[-42.200277877404346, -21.409166923207387]"
Okahandja,16.905277446931702,-21.97750070435178,"[16.905277446931702, -21.97750070435178]"
Itaberai,-49.7975011735268,-16.026941962148975,"[-49.797501173526804, -16.026941962148975]"
Juazeiro,-40.49862250043772,-9.41710695923103,"[-40.49862250043772, -9.41710695923103]"
Terrace,-128.60344197499293,54.52010901222784,"[-128.60344197499293, 54.520109012227834]"
Shilka,116.03370966914402,51.85454581145992,"[116.03370966914402, 51.854545811459914]"
Cholpon Ata,77.07170855259761,42.6502201922606,"[77.07170855259761, 42.6502201922606]"
Echuca,144.75370470535074,-36.12546053201018,"[144.75370470535074, -36.12546053201018]"
Glenwood Springs,-107.33471479283703,39.54536704176764,"[-107.33471479283703, 39.54536704176764]"
Uglegorsk,142.0757608758952,49.07727362614144,"[142.0757608758952, 49.07727362614144]"
Cerro de Pasco,-76.25805554246134,-10.67805580056303,"[-76.25805554246134, -10.67805580056303]"
Chacabuco,-60.4717102562056,-34.63925312834653,"[-60.4717102562056, -34.63925312834653]"
Coronel Suarez,-61.92741368018523,-37.45767461957547,"[-61.92741368018523, -37.45767461957547]"
Gyzlarbat,56.273332115212575,38.977083150259816,"[56.273332115212575, 38.977083150259816]"
Lincoln2,-61.52872851864012,-34.863815438111764,"[-61.52872851864012, -34.863815438111764]"
Boma,13.055834729570272,-5.834719755438909,"[13.055834729570273, -5.834719755438909]"
Rehoboth,17.083577439876898,-23.31936174616534,"[17.083577439876898, -23.31936174616534]"
Tatvan,42.28399146744743,38.50065620594855,"[42.28399146744743, 38.50065620594855]"
Al Ahmadi,48.0699087990695,29.09074069649441,"[48.0699087990695, 29.090740696494414]"
San Jose de Mayo,-56.71162363059599,-34.338376516350955,"[-56.71162363059599, -34.338376516350955]"
Ahar,47.06874948197208,38.47916537743699,"[47.068749481972084, 38.47916537743699]"
Cauquenes,-72.32222267899579,-35.96666560511032,"[-72.32222267899579, -35.96666560511032]"
Kericho,35.277499099750045,-0.3591679914695868,"[35.277499099750045, -0.35916799146958683]"
Mandera,41.85972208904595,3.934165201038004,"[41.85972208904595, 3.9341652010380037]"
Russas,-37.97361100357944,-4.937500150356978,"[-37.973611003579435, -4.937500150356978]"
Tskhinvali,43.96567475187288,42.23154460521763,"[43.965674751872875, 42.23154460521763]"
Villa Constitucion,-60.3277794237136,-33.23796389020781,"[-60.327779423713594, -33.23796389020781]"
Kholmsk,142.0534384380117,47.04402028640665,"[142.0534384380117, 47.04402028640665]"
Arjona,-75.34916603668984,10.2591656164377,"[-75.34916603668984, 10.259165616437699]"
Chitipa,33.27527873558469,-9.70083415771838,"[33.27527873558469, -9.700834157718381]"
Dalnerechensk,133.73598573379286,45.92878862789617,"[133.73598573379286, 45.92878862789617]"
Ontario,-116.97599171673768,44.02599240562967,"[-116.97599171673767, 44.025992405629665]"
Pol-e Khomri,68.71250162302897,35.9481462986078,"[68.71250162302897, 35.948146298607796]"
Tessenei,36.65677183609641,15.10677064327582,"[36.65677183609641, 15.10677064327582]"
Castro1,-73.7775795611681,-42.47876715563413,"[-73.7775795611681, -42.47876715563413]"
Ferrenafe,-79.79416564683409,-6.632499402231366,"[-79.79416564683409, -6.632499402231366]"
Palmeira dos Indios,-36.63361103569085,-9.40361145443842,"[-36.63361103569085, -9.403611454438419]"
Sensuntepeque,-88.62447945208697,13.880728448537528,"[-88.62447945208697, 13.880728448537527]"
Lisburn,-6.750512651280489,54.51325740192813,"[-6.750512651280489, 54.51325740192813]"
Spencer,-95.1462506727148,43.14374836312136,"[-95.1462506727148, 43.143748363121354]"
Erenhot,111.9958330585512,43.65019924418159,"[111.9958330585512, 43.650199244181586]"
Al Quwayiyah,45.28063375792718,24.06691079353724,"[45.28063375792718, 24.06691079353724]"
Autlan,-104.36593170120616,19.771813736013723,"[-104.36593170120616, 19.771813736013723]"
Luleburgaz,27.361309348745102,41.40575306282244,"[27.361309348745102, 41.40575306282244]"
Chur,9.525179017953384,46.85923845991442,"[9.525179017953384, 46.85923845991442]"
Treinta y Tres,-54.38092029610633,-33.22916645262834,"[-54.38092029610633, -33.22916645262834]"
Frutal,-48.92685271171753,-20.025463205825897,"[-48.92685271171753, -20.025463205825897]"
Motul,-89.28553946929016,21.096323295693185,"[-89.28553946929016, 21.096323295693182]"
Puerto Barrios,-88.58848004238236,15.717400079475526,"[-88.58848004238236, 15.717400079475526]"
San Ramon de la Nueva Oran,-64.31944416177225,-23.137036208786974,"[-64.31944416177225, -23.137036208786974]"
Sennar,33.608578716523134,13.53701001442717,"[33.608578716523134, 13.53701001442717]"
Balyqshy,51.87558079470973,47.078212599040654,"[51.87558079470973, 47.078212599040654]"
Bartlesville,-95.98250010066816,36.74291542584941,"[-95.98250010066816, 36.742915425849404]"
Nueva Rosita,-101.21851893502335,27.93796238519109,"[-101.21851893502337, 27.93796238519109]"
Rosario do Sul,-54.9234662825345,-30.25285051915064,"[-54.9234662825345, -30.252850519150634]"
Ceres,-49.59534587637401,-15.311029411798788,"[-49.59534587637401, -15.311029411798787]"
EdDamer,33.96789315830921,17.590931965195328,"[33.96789315830921, 17.590931965195328]"
Kabalo,26.927205208376744,-6.046322817078667,"[26.927205208376744, -6.046322817078667]"
Linden,-58.272793369926106,6.00857822335964,"[-58.272793369926106, 6.00857822335964]"
Mugla,28.3650009098019,37.21416680441084,"[28.3650009098019, 37.21416680441084]"
Veinticinco de Mayo,-60.17583441264451,-35.43041631399198,"[-60.17583441264451, -35.43041631399198]"
Zvishavane,30.056019034718435,-20.324999040972163,"[30.056019034718435, -20.324999040972163]"
Standerton,29.24536939287096,-26.955554471808178,"[29.24536939287096, -26.955554471808178]"
Kavala,24.40302553581456,40.93825714192023,"[24.40302553581456, 40.938257141920225]"
Yaynangyoung,94.88455623094625,20.467890037470703,"[94.88455623094625, 20.467890037470706]"
Brovary,30.771495979957308,50.50449986779034,"[30.771495979957308, 50.50449986779034]"
Gogrial,28.103676178713386,8.54240303826825,"[28.103676178713386, 8.54240303826825]"
Omagh,-7.293452386517608,54.60386951578512,"[-7.293452386517608, 54.60386951578512]"
Uglich,38.330776474897206,57.52513211437402,"[38.330776474897206, 57.52513211437402]"
Hinton,-117.57362577942884,53.40848454353385,"[-117.57362577942884, 53.40848454353385]"
Penonome,-80.35563695276423,8.51887233357612,"[-80.35563695276423, 8.51887233357612]"
Tomah,-90.50126706322938,43.98894785627133,"[-90.50126706322938, 43.988947856271324]"
Shahrud,54.970076351229366,36.42007384176934,"[54.970076351229366, 36.42007384176934]"
Aketi,23.78112706335715,2.735538971826322,"[23.78112706335715, 2.735538971826322]"
Al Marj,20.83273704142324,32.48908563074323,"[20.832737041423236, 32.48908563074323]"
Dolores,-57.68035856214146,-36.31170513545391,"[-57.68035856214146, -36.31170513545391]"
Jardim,-56.15153532195244,-21.479166325719603,"[-56.15153532195244, -21.479166325719603]"
Nkongsamba,9.937499727251874,4.962036793741708,"[9.937499727251874, 4.962036793741708]"
La Grande,-118.08125467263518,45.32812310886004,"[-118.08125467263518, 45.32812310886004]"
Vernon,-99.29980119855774,34.15297626803944,"[-99.29980119855774, 34.15297626803944]"
Campoalegre,-75.32034314229466,2.7002461905898656,"[-75.32034314229466, 2.7002461905898656]"
Foumban,10.90092544506832,5.733796121284355,"[10.90092544506832, 5.733796121284355]"
Minas,-55.23631028707305,-34.36924557447253,"[-55.23631028707305, -34.36924557447253]"
Morrinhos,-49.11206077287407,-17.73223693884523,"[-49.11206077287407, -17.73223693884523]"
Yevlax,47.14945748782666,40.61177515711454,"[47.14945748782666, 40.61177515711454]"
Zapala,-70.06177543909968,-38.8983692493613,"[-70.06177543909968, -38.8983692493613]"
Safford,-109.71884851190308,32.82559559546025,"[-109.71884851190308, 32.82559559546025]"
Umm al Qaywayn,55.55548060935069,25.560743777257137,"[55.55548060935069, 25.560743777257137]"
Xinqing,129.53009316225803,48.28749697433418,"[129.53009316225803, 48.28749697433418]"
Angol,-72.69886660521883,-37.8053012797422,"[-72.69886660521883, -37.805301279742196]"
Vratsa,23.55764234011086,43.20659714186399,"[23.55764234011086, 43.20659714186399]"
Tzaneen,30.166009622909016,-23.83399109816828,"[30.166009622909016, -23.83399109816828]"
Vlore,19.48967109199379,40.4690190724609,"[19.48967109199379, 40.4690190724609]"
Dolbeau,-72.22436280825136,48.88397390015185,"[-72.22436280825136, 48.88397390015185]"
Kempsey,152.8339274407222,-31.07876779901035,"[152.8339274407222, -31.07876779901035]"
Lobito,13.5620355775103,-12.362501315651844,"[13.5620355775103, -12.362501315651844]"
Kingston3,147.30937169474117,-42.98784425497975,"[147.30937169474115, -42.98784425497975]"
Tonghua,125.7610500706351,41.67844256721409,"[125.7610500706351, 41.67844256721409]"
Kyakhta,106.4480047276728,50.35230865070588,"[106.44800472767281, 50.35230865070588]"
Moanda2,13.225658341470211,-1.553288760582041,"[13.225658341470213, -1.5532887605820407]"
Alta Gracia,-64.42575789201436,-31.65568155294748,"[-64.42575789201436, -31.655681552947478]"
Jamaame,42.74364095026533,0.0717100960466756,"[42.74364095026533, 0.07171009604667568]"
Esteli,-86.35635942546935,13.08969279086839,"[-86.35635942546935, 13.08969279086839]"
Pyatigorsk,43.09262598844184,44.092944271043,"[43.09262598844184, 44.092944271042995]"
Tres Arroyos,-60.27638958799203,-38.37777582235911,"[-60.27638958799203, -38.377775822359105]"
Ciudad Constitucion,-111.65708322881594,25.03291603441276,"[-111.65708322881594, 25.032916034412757]"
Huacho,-77.60696927177881,-11.103059371273432,"[-77.60696927177881, -11.103059371273432]"
Registro,-47.84900791259903,-24.499801084799515,"[-47.84900791259903, -24.499801084799515]"
Tacuarembo,-55.97878716385292,-31.718179101490943,"[-55.97878716385292, -31.718179101490946]"
Tizimin,-88.14916672481507,21.142499506812115,"[-88.14916672481507, 21.142499506812115]"
Coban,-90.37999797112788,15.467500192356892,"[-90.37999797112788, 15.467500192356892]"
La Ceiba,-86.78794018316326,15.773026153216133,"[-86.78794018316326, 15.773026153216133]"
Linares2,-3.634963899851455,38.09692021093223,"[-3.6349638998514546, 38.096920210932225]"
Mamou,-12.090131057942164,10.367763475814558,"[-12.090131057942164, 10.367763475814558]"
Nueve de Julio,-60.88750007699633,-35.447282401218594,"[-60.88750007699633, -35.447282401218594]"
Umm Ruwaba,31.21556965762154,12.907674707005793,"[31.21556965762154, 12.907674707005791]"
Bogotol,89.52588289892819,56.20795329216534,"[89.52588289892819, 56.20795329216534]"
Gympie,152.6712289785665,-26.19027630760685,"[152.6712289785665, -26.19027630760685]"
Osorio,-50.26174339190178,-29.89659057092205,"[-50.26174339190178, -29.896590570922058]"
Sobral,-40.350220828116335,-3.685305070156771,"[-40.350220828116335, -3.685305070156771]"
Kentau,68.51474579720887,43.52051169144501,"[68.51474579720887, 43.52051169144501]"
Yacuiba,-63.68166545499234,-22.02458108785748,"[-63.68166545499234, -22.02458108785748]"
Juifang,121.79000475776368,25.121109433833976,"[121.79000475776368, 25.121109433833976]"
Loei,101.7295832718339,17.469164854744655,"[101.7295832718339, 17.469164854744655]"
Angangxi,123.81588479782236,47.156632494783466,"[123.81588479782236, 47.156632494783466]"
Severomorsk,33.431769013321,69.06592924131044,"[33.431769013321, 69.06592924131044]"
Cliza,-65.93486858510113,-17.587937206017116,"[-65.93486858510113, -17.587937206017116]"
Polatli,32.141986612356256,39.58044874671145,"[32.141986612356256, 39.58044874671145]"
Tartagal,-63.79821410674093,-22.51606933021796,"[-63.79821410674093, -22.516069330217956]"
Goulimine,-10.057577312645916,28.98674256932481,"[-10.057577312645916, 28.986742569324818]"
Sao Luiz Gonzaga,-54.95909212644562,-28.406438380655885,"[-54.95909212644562, -28.406438380655885]"
Las Vegas1,-105.2260408603824,35.60173335639474,"[-105.22604086038241, 35.60173335639474]"
Castro2,-50.00227357553447,-24.797347140865675,"[-50.00227357553447, -24.797347140865675]"
Concepcion2,-57.43750040592441,-23.404545196845188,"[-57.43750040592441, -23.404545196845188]"
Deming,-107.75590416815142,32.26041661145817,"[-107.75590416815142, 32.26041661145817]"
Timaru,171.23965756499376,-44.39212773825003,"[171.23965756499376, -44.39212773825003]"
Machakos,37.26500020677936,-1.5145833483402105,"[37.265000206779355, -1.5145833483402105]"
Kapiri Mposhi,28.682918078701213,-13.964580880111727,"[28.682918078701213, -13.964580880111727]"
Maitland,151.5320635389918,-32.7233702681676,"[151.5320635389918, -32.7233702681676]"
Alexandroupoli,25.89038468045691,40.85448920690361,"[25.89038468045691, 40.85448920690361]"
Buguruslan,52.43087329482336,53.64117063428381,"[52.430873294823364, 53.64117063428381]"
Braganca,-46.77083316730088,-1.0541671553234184,"[-46.77083316730088, -1.0541671553234184]"
Montemorelos,-99.8291680876526,25.18605065280789,"[-99.8291680876526, 25.186050652807886]"
Toguchin,84.39290247872812,55.24087410162628,"[84.39290247872812, 55.24087410162628]"
Birni Nkonni,5.251894676004544,13.80265304241168,"[5.251894676004544, 13.802653042411679]"
Buzmeyin,58.20224434342905,38.047435768355385,"[58.20224434342905, 38.047435768355385]"
Chililabombwe,27.841070941250862,-12.367261986022791,"[27.841070941250866, -12.367261986022793]"
Ksar El Kebir,-5.906408363821765,35.0025619401403,"[-5.906408363821765, 35.0025619401403]"
Muglad,27.75189503143856,11.040151554834727,"[27.75189503143856, 11.040151554834727]"
Plast,60.815506935368674,54.372216801376894,"[60.815506935368674, 54.372216801376894]"
Novozybkov,31.93297906169344,52.53916296739919,"[31.932979061693437, 52.53916296739919]"
Palma Soriano,-75.9988624297478,20.22272676840206,"[-75.9988624297478, 20.22272676840206]"
Alagoinhas,-38.42916433360177,-12.1321946780651,"[-38.42916433360177, -12.132194678065101]"
Bawku,-0.2363096751593911,11.064880477958358,"[-0.23630967515939114, 11.064880477958358]"
Cabo de Santo Agostinho,-35.035515321697254,-8.291865659589055,"[-35.035515321697254, -8.291865659589055]"
Hereford,-102.40050047543386,34.82216701422908,"[-102.40050047543386, 34.82216701422908]"
Kirksville,-92.5791653066498,40.1970638674036,"[-92.57916530664981, 40.1970638674036]"
San Fernando3,-70.9815030189442,-34.5848310891718,"[-70.9815030189442, -34.5848310891718]"
Brits,27.79257211937088,-25.63242504278458,"[27.79257211937088, -25.63242504278458]"
Traralgon,146.53780806719973,-38.19737662818948,"[146.53780806719973, -38.19737662818948]"
Vryheid,30.798262922789515,-27.77118082422468,"[30.798262922789515, -27.77118082422468]"
Willmar,-95.05043100754392,45.11307464150069,"[-95.05043100754393, 45.11307464150069]"
Capanema,-47.18392911942488,-1.1871012966221677,"[-47.18392911942488, -1.1871012966221675]"
Dabou,-4.3748010519343765,5.326388450194191,"[-4.3748010519343765, 5.326388450194191]"
Balcarce,-58.26095154770753,-37.85138563916341,"[-58.26095154770753, -37.85138563916341]"
Burnie,145.90107864226786,-41.06373579758685,"[145.90107864226786, -41.06373579758685]"
Dyatkovo,34.33988206833562,53.59964160683021,"[34.33988206833562, 53.599641606830204]"
Tralee,-9.69853316059004,52.27401803519402,"[-9.69853316059004, 52.27401803519402]"
Bethal,29.474309415560533,-26.45555510615283,"[29.474309415560533, -26.45555510615283]"
Goulburn,149.7182740813357,-34.74903626328748,"[149.7182740813357, -34.74903626328748]"
Nekemte,36.54384997596918,9.075594624376656,"[36.54384997596918, 9.075594624376656]"
Courtenay,-124.99659604936728,49.68699143276172,"[-124.99659604936728, 49.68699143276172]"
Covilha,-7.498920913219556,40.27978144899554,"[-7.498920913219556, 40.27978144899554]"
North Battleford,-108.28344018868808,52.77416130729078,"[-108.28344018868808, 52.77416130729078]"
Burley,-113.78303900024598,42.541367731165685,"[-113.78303900024598, 42.541367731165685]"
Uvira,29.15138877814825,-3.371627091010692,"[29.15138877814825, -3.3716270910106916]"
Kohtla-Jarve,27.255784836689568,59.39481114403717,"[27.255784836689568, 59.39481114403717]"
Ust Kut,105.79988269191068,56.79690498058848,"[105.79988269191068, 56.79690498058848]"
Orongen Zizhiqi,123.72345270829828,50.58844752818278,"[123.72345270829828, 50.58844752818278]"
Valle de la Pascua,-66.00489096237082,9.21358577038567,"[-66.00489096237082, 9.21358577038567]"
El Kharga,30.548263308328693,25.447916798755088,"[30.548263308328693, 25.447916798755088]"
San Francisco2,-62.08269315785676,-31.4294868611218,"[-62.08269315785676, -31.4294868611218]"
Zarate,-59.032252316553375,-34.10169723483673,"[-59.032252316553375, -34.10169723483673]"
Rudny,63.11970796646546,52.970382139444666,"[63.11970796646546, 52.970382139444666]"
Guasdualito,-70.72538072363044,7.2374999474177,"[-70.72538072363044, 7.2374999474177]"
Inhumas,-49.49511018103798,-16.366122820523355,"[-49.49511018103798, -16.366122820523355]"
Sao Gabriel,-54.32549904006601,-30.33549761272924,"[-54.32549904006601, -30.33549761272924]"
Atbasar,68.35300063601028,51.81133901620059,"[68.35300063601028, 51.81133901620059]"
Hays,-99.32083417567443,38.88065321850111,"[-99.32083417567443, 38.88065321850111]"
Murray Bridge,139.26743738232233,-35.129474778109696,"[139.26743738232233, -35.129474778109696]"
Ipora,-51.11032363432956,-16.43387510211144,"[-51.11032363432956, -16.43387510211144]"
Krasnouralsk,60.05218442372964,58.346422849399296,"[60.05218442372964, 58.346422849399296]"
Shebekino,36.89820610122707,50.4089245323212,"[36.89820610122707, 50.408924532321194]"
Daan,124.28320070296576,45.4928716203556,"[124.28320070296577, 45.492871620355594]"
Villa Angela,-60.71783372336413,-27.57849953309165,"[-60.71783372336413, -27.57849953309165]"
Douglas4,-109.5361200185896,31.348162878007543,"[-109.53612001858959, 31.348162878007546]"
Gjovik,10.655280345532908,60.79120047156873,"[10.655280345532908, 60.79120047156873]"
Caratinga,-42.13888818246955,-19.78090029487933,"[-42.13888818246955, -19.78090029487933]"
Parachinar,70.10705629016358,33.88813783810249,"[70.10705629016358, 33.88813783810249]"
Nova Lima,-43.85561967476909,-19.99909325486951,"[-43.85561967476909, -19.99909325486951]"
Klin,36.72702973785039,56.33343921167064,"[36.72702973785039, 56.333439211670644]"
Kirovo-Chepetsk,50.01501758873874,58.54874072070496,"[50.01501758873874, 58.54874072070496]"
Mo i Rana,14.15461716410015,66.32886621282778,"[14.15461716410015, 66.32886621282778]"
Karokh,62.601377142539086,34.48441132886131,"[62.601377142539086, 34.48441132886131]"
Nizhenvartovsk,76.57010461696431,60.95035895682486,"[76.57010461696431, 60.95035895682486]"
Bani Walid,13.995536630964304,31.75238163238452,"[13.995536630964303, 31.75238163238452]"
Arsenyev,133.27370136462602,44.15728768421072,"[133.27370136462602, 44.157287684210715]"
Gandajika,23.95312474449539,-6.732986672030036,"[23.95312474449539, -6.732986672030036]"
Sogamoso,-72.93472092686213,5.717362960234339,"[-72.93472092686213, 5.717362960234339]"
Berdyansk,36.79166988780109,46.76617413613007,"[36.79166988780109, 46.76617413613007]"
Concepcion del Uruguay,-58.24645041262308,-32.4825622252279,"[-58.246450412623076, -32.4825622252279]"
Kamensk Shakhtinskiy,40.26154670359203,48.31369051708062,"[40.26154670359203, 48.31369051708062]"
Arcata,-124.0813863422196,40.87777286886559,"[-124.08138634221959, 40.87777286886559]"
Hurghada,33.82435922081764,27.238460568687067,"[33.82435922081764, 27.238460568687067]"
Tulcea,28.792300715590034,45.17790362694527,"[28.792300715590034, 45.177903626945266]"
Jacarezinho,-49.96983373429327,-23.155168035252323,"[-49.96983373429327, -23.155168035252323]"
Mercedes1,-59.42801800324003,-34.65387885958544,"[-59.42801800324003, -34.65387885958544]"
Itapetinga,-40.23819424056328,-15.248960086380166,"[-40.23819424056328, -15.248960086380166]"
Kasangulu,15.173612773064342,-4.599653327657142,"[15.173612773064342, -4.599653327657142]"
As Salt,35.72638852031505,32.04675722188668,"[35.72638852031505, 32.04675722188668]"
Tejen,60.49928177072656,37.379454663753165,"[60.49928177072656, 37.379454663753165]"
Berber,33.984168322192595,18.040831296356902,"[33.984168322192595, 18.040831296356906]"
Varamin,51.6470248083736,35.333034065222044,"[51.6470248083736, 35.333034065222044]"
Eldama Ravine,35.720107774560454,0.0335135981937068,"[35.720107774560454, 0.03351359819370684]"
Haugesund,5.290663193988872,59.41193664433606,"[5.290663193988872, 59.41193664433606]"
Zuozhou,115.80249472837532,39.55194142877546,"[115.80249472837532, 39.55194142877546]"
Wakema,95.17783347649376,16.62316486149379,"[95.17783347649376, 16.62316486149379]"
Riviere-du-Loup,-69.52963793901978,47.83344546005693,"[-69.52963793901978, 47.83344546005693]"
Laghouat,2.871407086687108,33.80272878711329,"[2.871407086687108, 33.80272878711329]"
Kropotkin,40.57083018071362,45.43504881582139,"[40.57083018071362, 45.43504881582139]"
Bowling Green2,-83.6551762145939,41.37638915526261,"[-83.6551762145939, 41.37638915526261]"
Madinat ath Thawrah,38.54583244272209,35.83555598585891,"[38.54583244272209, 35.83555598585891]"
Rzhev,34.32374487821663,56.25862306614102,"[34.32374487821663, 56.25862306614102]"
Joacaba,-51.50714110441801,-27.17589303370271,"[-51.50714110441801, -27.17589303370271]"
Verkhniy Ufaley,60.232661353841664,56.05338852190754,"[60.232661353841664, 56.05338852190754]"
Pakxe,105.81449955278045,15.123834310401651,"[105.81449955278045, 15.123834310401653]"
Barletta,16.282955260938163,41.314522175786415,"[16.282955260938163, 41.314522175786415]"
Winneba,-0.6358327126806894,5.36150042427325,"[-0.6358327126806894, 5.36150042427325]"
Cranbrook,-115.76492079696295,49.51315434395156,"[-115.76492079696297, 49.51315434395156]"
Chernyakhovsk,21.82062713809212,54.6386868104236,"[21.82062713809212, 54.6386868104236]"
Juigalpa,-85.36683301755744,12.116500746828956,"[-85.36683301755744, 12.116500746828955]"
Iron Mountain,-88.07393320833063,45.81154504027977,"[-88.07393320833063, 45.81154504027977]"
Al Qamishli,41.24062448299204,37.042445048354345,"[41.24062448299204, 37.042445048354345]"
Manzanillo1,-104.29391109413498,19.06987314295264,"[-104.29391109413498, 19.069873142952634]"
Estancia,-37.43483090558809,-11.255164111069064,"[-37.43483090558809, -11.255164111069064]"
Naryn,75.98854303850483,41.42682950878672,"[75.98854303850483, 41.42682950878672]"
Apatzingan,-102.354164591655,19.090275233036788,"[-102.35416459165499, 19.090275233036788]"
Goya,-59.25999964632914,-29.14972155912223,"[-59.25999964632914, -29.14972155912223]"
Linares1,-71.58776944072817,-35.84475873831644,"[-71.58776944072817, -35.844758738316436]"
Coronel Oviedo,-56.43951159583905,-25.453304399184624,"[-56.43951159583905, -25.453304399184624]"
Koneurgench,59.15147270632764,42.32671583474968,"[59.15147270632764, 42.32671583474968]"
Lautoka,177.44953758373327,-17.627006735626075,"[177.44953758373327, -17.627006735626075]"
Albert Lea,-93.3670251648502,43.6515437028477,"[-93.3670251648502, 43.651543702847704]"
Shepparton,145.4033839139907,-36.38020569295151,"[145.4033839139907, -36.380205692951506]"
Shumen,26.937262985413216,43.27273879478791,"[26.937262985413216, 43.272738794787905]"
Narathiwat,101.81346135055615,6.422436467526239,"[101.81346135055617, 6.422436467526239]"
Warrnambool,142.4838515644055,-38.37656162060426,"[142.4838515644055, -38.376561620604264]"
Apatity,33.40636407797884,67.57952488171021,"[33.406364077978836, 67.57952488171021]"
Plattsburg,-73.47268433205574,44.69120339902885,"[-73.47268433205574, 44.69120339902885]"
Canoinhas,-50.391387838658055,-26.17916777527044,"[-50.391387838658055, -26.17916777527044]"
Chivilcoy,-60.01901157561282,-34.90130108648629,"[-60.01901157561282, -34.90130108648629]"
Marzuq,13.907502010300664,25.92694479120868,"[13.907502010300664, 25.926944791208676]"
Kanye,25.33203886969409,-24.97973969777677,"[25.332038869694095, -24.97973969777677]"
Puerto Madryn,-65.04398433733283,-42.76365092944486,"[-65.04398433733283, -42.76365092944486]"
Irati,-50.65333412036496,-25.472775361215227,"[-50.65333412036496, -25.472775361215227]"
Middelburg2,29.46166756657307,-25.766945371947173,"[29.46166756657307, -25.766945371947173]"
Sliven,26.328241549663613,42.66735643819233,"[26.328241549663613, 42.66735643819233]"
Rezekne,27.343621578600413,56.512834011806255,"[27.343621578600413, 56.512834011806255]"
Chitre,-80.43904484627181,7.96898212218006,"[-80.43904484627181, 7.96898212218006]"
Ft. Dodge,-94.18051851714634,42.50844329644661,"[-94.18051851714634, 42.50844329644661]"
Kanoya,130.85104008237704,31.38437589420668,"[130.85104008237704, 31.38437589420668]"
Nusaybin,41.230266648051824,37.07404883023008,"[41.230266648051824, 37.07404883023008]"
Ammochostos,33.92463079629085,35.12512367150952,"[33.92463079629085, 35.12512367150952]"
Vyshnniy Volochek,34.5555210042581,57.59072869184822,"[34.5555210042581, 57.59072869184822]"
Centralia,-122.96848219806095,46.72403532205226,"[-122.96848219806097, 46.72403532205226]"
Corner Brook,-57.9496936725328,48.94969812294551,"[-57.949693672532796, 48.94969812294551]"
Nieuw Nickerie,-57.00725205345019,5.935031829787517,"[-57.00725205345019, 5.935031829787517]"
Baiquan,126.07500129209588,47.61208256083648,"[126.07500129209588, 47.612082560836484]"
Drobeta-Turnu Severin,22.64779973789383,44.62631629300353,"[22.64779973789383, 44.62631629300353]"
Telemaco Borba,-50.6329314041522,-24.326748274260872,"[-50.632931404152195, -24.326748274260872]"
Alice,-98.07352176121452,27.752822095769268,"[-98.07352176121452, 27.752822095769268]"
Delano,-119.24338194541176,35.766172441273994,"[-119.24338194541176, 35.766172441273994]"
Ergun Zuoqi,121.537304520682,50.78806800427514,"[121.53730452068199, 50.78806800427514]"
Severouralsk,59.95591258036027,60.17462186630268,"[59.95591258036027, 60.17462186630268]"
Bolgatanga,-0.851869244366551,10.797843566531965,"[-0.851869244366551, 10.797843566531963]"
Ciudad Mante,-98.97755423132546,22.74448977246916,"[-98.97755423132546, 22.744489772469162]"
Paso Robles,-120.67475230980732,35.62426331635987,"[-120.67475230980733, 35.62426331635987]"
Leninogorsk,52.45331119955113,54.6012720344814,"[52.45331119955113, 54.6012720344814]"
Beja,9.19369188706752,36.73130689564813,"[9.19369188706752, 36.73130689564813]"
Tongren,109.17760249262123,27.71640580280019,"[109.17760249262123, 27.71640580280019]"
Viborg,9.408246321086114,56.453348272965904,"[9.408246321086114, 56.453348272965904]"
Alapayevsk,61.69284497210397,57.85054505367832,"[61.69284497210397, 57.85054505367832]"
El Arish,33.81805634673411,31.11956881652689,"[33.81805634673411, 31.11956881652689]"
Loubomo,12.667262890154396,-4.191667526712483,"[12.667262890154397, -4.191667526712483]"
Linkou,130.2629085031797,45.28208095189736,"[130.2629085031797, 45.282080951897356]"
Numan,12.071723890760998,9.44672710337274,"[12.071723890760998, 9.44672710337274]"
Kompong Chhnang,104.66192382076896,12.239508719621066,"[104.66192382076895, 12.239508719621066]"
Garca,-49.65873747607015,-22.216531375138604,"[-49.65873747607015, -22.216531375138604]"
Punta Alta,-62.07736628560463,-38.87646158115664,"[-62.07736628560463, -38.87646158115664]"
Campana,-58.9522649651697,-34.17940270064046,"[-58.952264965169704, -34.17940270064046]"
Biel,7.260117528902343,47.13432311141198,"[7.260117528902343, 47.13432311141198]"
Padangsidempuan,99.27341896819564,1.3777294324714076,"[99.27341896819564, 1.3777294324714076]"
Garden City,-100.85821889035132,37.97646456608289,"[-100.85821889035131, 37.97646456608289]"
Queanbeyan,149.22430911512097,-35.36226623746504,"[149.22430911512097, -35.362266237465036]"
Ruzayevka,44.94399637807833,54.05916596907775,"[44.94399637807833, 54.059165969077746]"
Trnava,17.585951182284393,48.36869867530218,"[17.585951182284393, 48.368698675302184]"
Asti,8.213921646662717,44.90477419262632,"[8.213921646662717, 44.90477419262632]"
Petrovsk Zabaykalskiy,108.84817963804969,51.27372181229351,"[108.84817963804969, 51.27372181229351]"
Crotone,17.105705132358086,39.08551746028812,"[17.105705132358086, 39.08551746028812]"
Mozdok,44.65249523774369,43.74770649609186,"[44.65249523774369, 43.74770649609186]"
Tanjungkarang-Telubketung,105.31155054138344,-5.449295319750398,"[105.31155054138345, -5.449295319750398]"
Lahad Datu,118.32629220262211,5.031752413940183,"[118.32629220262211, 5.031752413940183]"
Rouyn-Noranda,-79.02025956715615,48.243930545493406,"[-79.02025956715615, 48.243930545493406]"
Changling,123.98500196773963,44.27750002418995,"[123.98500196773963, 44.27750002418995]"
Alpena,-83.45376127631349,45.065544724518745,"[-83.45376127631349, 45.065544724518745]"
Huamachuco,-78.02227012750903,-7.813074400306087,"[-78.02227012750903, -7.813074400306087]"
Ozamis,123.83634886701935,8.15847712474898,"[123.83634886701935, 8.15847712474898]"
Tak,99.13305661728678,16.883333359074435,"[99.13305661728678, 16.883333359074435]"
Vanino,140.26362165381897,49.073844640329376,"[140.26362165381897, 49.073844640329376]"
Ayacucho,-74.2181446590602,-13.16330559191271,"[-74.2181446590602, -13.16330559191271]"
Carazinho,-52.790829767110345,-28.2934494716782,"[-52.790829767110345, -28.293449471678194]"
Apsheronsk,39.72761935931918,44.45726458514695,"[39.72761935931918, 44.457264585146945]"
Shchekino,37.51315655626063,54.00988001031013,"[37.513156556260626, 54.009880010310134]"
Batatais,-47.57967124984084,-20.899621600291457,"[-47.57967124984084, -20.899621600291457]"
Faribault,-93.2791658645489,44.29563041788574,"[-93.2791658645489, 44.29563041788574]"
Formiga,-45.43671919259107,-20.460157447580205,"[-45.43671919259107, -20.460157447580205]"
Brockville,-75.68909080970252,44.61011569593347,"[-75.68909080970252, 44.61011569593347]"
Koforidua,-0.2592738397029361,6.098789037018934,"[-0.25927383970293616, 6.098789037018934]"
Ciego de Avila,-78.76174299554748,21.843055368619947,"[-78.76174299554748, 21.843055368619947]"
Lismore,153.29411628817147,-28.815196996670643,"[153.29411628817147, -28.815196996670643]"
Pirassununga,-47.42512663126345,-22.00391193415945,"[-47.42512663126345, -22.00391193415945]"
Kizel,57.64455927260146,59.05684644173717,"[57.64455927260146, 59.056846441737164]"
Manbij,37.95504119641468,36.52806917473617,"[37.955041196414676, 36.52806917473617]"
Maladzyechna,26.849835942023,54.31201965573516,"[26.849835942023, 54.31201965573516]"
Gangtok,88.59778987451595,27.2987693534953,"[88.59778987451595, 27.2987693534953]"
Upper Hutt,175.05459741315693,-41.12791700532977,"[175.05459741315693, -41.12791700532977]"
Waterford,-7.110966091966007,52.24923507595314,"[-7.110966091966007, 52.24923507595314]"
Esik,77.4720565150157,43.35497906552032,"[77.4720565150157, 43.35497906552032]"
Hong Gai,107.11325701249328,20.96174251287527,"[107.11325701249329, 20.96174251287527]"
Savonlinna,28.88986432071991,61.8696704704202,"[28.88986432071991, 61.869670470420196]"
Oudtshoorn,22.20964732806983,-33.5958334551292,"[22.20964732806983, -33.5958334551292]"
Kearney,-99.08829419960249,40.70555446918281,"[-99.08829419960247, 40.70555446918281]"
New Glasgow,-62.65076530970688,45.581999480621896,"[-62.650765309706884, 45.581999480621896]"
Ourense,-7.875291185540754,42.34253735750129,"[-7.875291185540754, 42.34253735750129]"
McAlester,-95.76185643581844,34.93258200572957,"[-95.76185643581843, 34.93258200572957]"
Novoshakhtinsk,39.93431610192776,47.750443309072544,"[39.93431610192776, 47.750443309072544]"
Roskilde,12.090771409967385,55.64166557967585,"[12.090771409967385, 55.64166557967585]"
Balakhna,43.57509766393188,56.506351687616,"[43.57509766393188, 56.506351687616004]"
Oktyabrskiy,53.4812084149892,54.48545554846919,"[53.4812084149892, 54.48545554846919]"
Rio Verde1,-100.01298818472316,21.93529491380827,"[-100.01298818472317, 21.93529491380827]"
Hanggin Houqi,107.1141352556937,40.90762064829436,"[107.1141352556937, 40.90762064829436]"
Lenger,69.83533582676154,42.19662456042317,"[69.83533582676154, 42.19662456042317]"
Ardmore,-97.13920831731264,34.17788198198486,"[-97.13920831731265, 34.17788198198486]"
Diourbel,-16.233577848837612,14.65416664542835,"[-16.233577848837612, 14.65416664542835]"
Iguala,-99.53369047616864,18.35202521395874,"[-99.53369047616864, 18.35202521395874]"
Santo angelo,-54.25754391664422,-28.296732035113976,"[-54.25754391664422, -28.296732035113976]"
Borisoglebsk,42.093111482437486,51.364578917320905,"[42.093111482437486, 51.364578917320905]"
Melton,144.573274217841,-37.6858734663326,"[144.573274217841, -37.685873466332595]"
Tayshet,98.01089380984168,55.934138238583046,"[98.01089380984169, 55.934138238583046]"
Ben Gardane,11.211858176751267,33.13151692039304,"[11.211858176751267, 33.13151692039304]"
Uman,30.21709202571518,48.74753195153362,"[30.21709202571518, 48.74753195153362]"
Palatka,-81.66579001051664,29.64276405601992,"[-81.66579001051664, 29.642764056019914]"
Aleksin,37.06562376917866,54.50863309005354,"[37.06562376917866, 54.50863309005354]"
Brownwood,-98.98245295333248,31.698680360136606,"[-98.98245295333247, 31.698680360136606]"
Macae,-41.78130471859475,-22.36964049463029,"[-41.78130471859475, -22.36964049463029]"
Ciudad Hidalgo,-100.53773840934596,19.68940721047033,"[-100.53773840934596, 19.689407210470335]"
Nanyuki,37.09886123094231,0.0200738642305786,"[37.098861230942305, 0.020073864230578695]"
Vibo Valentia,16.084445081549177,38.66168609762124,"[16.084445081549177, 38.661686097621235]"
Waterville,-69.63008400484479,44.55742377720631,"[-69.63008400484479, 44.55742377720631]"
Carora,-70.07499891523902,10.169608602313064,"[-70.07499891523902, 10.169608602313065]"
Cachoeira do Sul,-52.901604060684,-30.0308733571331,"[-52.901604060684, -30.0308733571331]"
Chilpancingo,-99.5009245091594,17.557868425365367,"[-99.50092450915939, 17.557868425365367]"
Trelew,-65.31356477982635,-43.25399020477378,"[-65.31356477982635, -43.25399020477378]"
Carupano,-63.25512014729304,10.655117813664049,"[-63.25512014729304, 10.655117813664049]"
Atlixco,-98.43356587591316,18.91296360118649,"[-98.43356587591315, 18.912963601186494]"
Shuya,41.37056216783847,56.851343850744406,"[41.37056216783847, 56.851343850744406]"
Shwebo,95.69898507740744,22.5784896934544,"[95.69898507740743, 22.578489693454397]"
Svobodnyy,128.1392084081294,51.37112777498646,"[128.1392084081294, 51.37112777498646]"
Zharkent,80.00629003690054,44.17809388245978,"[80.00629003690054, 44.17809388245978]"
Cienfuegos,-80.43102017903215,22.156248627635943,"[-80.43102017903215, 22.156248627635946]"
Prizren,20.733511966076723,42.22155612511874,"[20.733511966076723, 42.22155612511874]"
Ash Shatrah,46.16634852840444,31.42168470714476,"[46.16634852840444, 31.42168470714476]"
Ocumare del Tuy,-66.78464352857684,10.126310865955608,"[-66.78464352857684, 10.126310865955608]"
San-Pedro,-6.650979204806998,4.760782621255802,"[-6.650979204806998, 4.760782621255802]"
Elbasan,20.09961751668136,41.111554685767295,"[20.09961751668136, 41.111554685767295]"
Tweed Heads,153.53044750417124,-28.20309469317873,"[153.53044750417124, -28.203094693178734]"
Kahama,32.60490186445332,-3.818140311432168,"[32.60490186445332, -3.818140311432168]"
Munchon,127.25301867012185,39.37500190305225,"[127.25301867012183, 39.37500190305225]"
Georgievsk,43.469635759962266,44.15535312728736,"[43.469635759962266, 44.15535312728736]"
Cacador,-51.01463658775539,-26.779595201471626,"[-51.01463658775539, -26.779595201471626]"
Ararangua,-49.49375020447216,-28.93812498099409,"[-49.49375020447216, -28.93812498099409]"
Muriae,-42.36858180054947,-21.130292891293816,"[-42.36858180054947, -21.130292891293816]"
Pernik,23.069795545450063,42.601217942206446,"[23.069795545450066, 42.601217942206446]"
Cutral Co,-69.21305491771781,-38.93453896012889,"[-69.21305491771781, -38.93453896012889]"
Ottumwa,-92.41746913010358,41.019056045124486,"[-92.41746913010358, 41.019056045124486]"
San Francisco de Macoris,-70.26700585121299,19.30168778269227,"[-70.26700585121299, 19.30168778269227]"
Zalantun,122.7379907847628,47.9969469004444,"[122.7379907847628, 47.9969469004444]"
Karlovac,15.544986339011,45.49021255615951,"[15.544986339011, 45.49021255615951]"
Vanadzor,44.492041780969885,40.811957649981295,"[44.492041780969885, 40.811957649981295]"
Kuga,82.9635895446846,41.713225026549,"[82.9635895446846, 41.713225026549]"
Kwinana,115.79318926732184,-32.221032774207885,"[115.79318926732184, -32.221032774207885]"
Illichivsk,30.63864568162528,46.328830975849634,"[30.638645681625274, 46.328830975849634]"
Clarksburg,-80.32786658414226,39.27435212447808,"[-80.32786658414226, 39.27435212447808]"
Magangue,-74.77823730781175,9.263424231204263,"[-74.77823730781175, 9.263424231204263]"
Brainerd,-94.21783692429976,46.35217094822163,"[-94.21783692429975, 46.35217094822163]"
Guaxupe,-46.71506254721199,-21.30074756951673,"[-46.715062547211986, -21.30074756951673]"
Galesburg,-90.37135617933748,40.95225683877891,"[-90.37135617933748, 40.95225683877891]"
Juchitan,-95.01359862943912,16.444734693452972,"[-95.01359862943913, 16.444734693452972]"
Orekhovo-Zuevo,38.9757765891413,55.81080307832427,"[38.975776589141304, 55.81080307832427]"
Perabumulih,104.24351759185689,-3.423381357407352,"[104.24351759185689, -3.423381357407352]"
Maldonado,-54.94819123623767,-34.90896738240962,"[-54.94819123623767, -34.90896738240962]"
Stillwater,-97.05700739596502,36.132761706580126,"[-97.05700739596502, 36.132761706580126]"
Penapolis,-50.08066094076421,-21.41036229781345,"[-50.08066094076421, -21.410362297813446]"
Idlib,36.64090648926161,35.94261300688053,"[36.64090648926161, 35.94261300688053]"
Paragould,-90.51174205361752,36.05492468609612,"[-90.51174205361751, 36.054924686096115]"
Tacloban,125.00056250638605,11.205289851521842,"[125.00056250638603, 11.205289851521842]"
Big Spring,-101.47703810723227,32.23730419862995,"[-101.47703810723227, 32.23730419862995]"
Canela,-50.83850952067954,-29.36392450080568,"[-50.838509520679544, -29.363924500805673]"
Jutiapa,-89.91340043251758,14.301015490121792,"[-89.91340043251758, 14.301015490121793]"
Villa Maria,-63.23920407260521,-32.41439339665481,"[-63.23920407260521, -32.41439339665481]"
Villavicencio,-73.62214824928746,4.142984074314596,"[-73.62214824928746, 4.142984074314596]"
Cartago2,-75.92803940041156,4.7593465267657935,"[-75.92803940041156, 4.7593465267657935]"
Kindu,25.926463363068795,-2.9474098714085897,"[25.926463363068795, -2.9474098714085897]"
Elblag,19.412112041251376,54.167518194426286,"[19.412112041251376, 54.167518194426286]"
Asbest,61.46939107121748,57.0092363079567,"[61.46939107121748, 57.0092363079567]"
Iskitim,83.30160232272077,54.6308180891585,"[83.30160232272077, 54.6308180891585]"
Ragusa,14.708330958410183,36.91449383896819,"[14.708330958410183, 36.91449383896819]"
El Manaqil,32.991006560954204,14.255481228837676,"[32.991006560954204, 14.255481228837677]"
Kiselevsk,86.66610105213276,53.99659296090898,"[86.66610105213276, 53.99659296090898]"
Prince Albert,-105.74924639657164,53.19747165444816,"[-105.74924639657164, 53.19747165444816]"
Zenica,17.91892012646742,44.20448378234849,"[17.91892012646742, 44.20448378234849]"
Al Musayyib,44.292611824072125,32.78200691716688,"[44.292611824072125, 32.78200691716688]"
Ituiutaba,-49.46371773873575,-18.97733625895621,"[-49.46371773873575, -18.97733625895621]"
Rafaela,-61.49305254026109,-31.25342297059652,"[-61.49305254026109, -31.253422970596517]"
Barrancabermeja,-73.8498926072002,7.068054911124596,"[-73.8498926072002, 7.068054911124596]"
Hidalgo del Parral,-105.6687020370222,26.93323851698704,"[-105.66870203702221, 26.933238516987036]"
Rio Verde2,-50.92388244645245,-17.790142138286768,"[-50.92388244645245, -17.790142138286768]"
Al Hasakah,40.74722544386205,36.503991038698594,"[40.74722544386205, 36.503991038698594]"
Souk Ahras,7.961105810370896,36.28819442782692,"[7.961105810370896, 36.288194427826916]"
Liepaga,21.02344493723934,56.529270569757415,"[21.02344493723934, 56.529270569757415]"
Novara,8.634236530491288,45.46624423860803,"[8.634236530491288, 45.46624423860803]"
Suceava,26.25138100967181,47.6608907592246,"[26.251381009671814, 47.6608907592246]"
Casa Grande,-111.74601408913408,32.89365643920059,"[-111.74601408913408, 32.89365643920059]"
Ciudad Madero,-97.82984760263768,22.297283969835465,"[-97.82984760263767, 22.297283969835465]"
Masjed Soleyman,49.29023000008222,31.95125846150892,"[49.29023000008222, 31.951258461508914]"
Capitol Hill,145.72332884676524,15.168535380615134,"[145.72332884676524, 15.168535380615134]"
Braganca Paulista,-46.54254054952934,-22.94195495801558,"[-46.54254054952934, -22.94195495801558]"
Presidencia Roque Saenz Pena,-60.43996347739866,-26.787499691502333,"[-60.43996347739866, -26.787499691502333]"
Cleburne,-97.39796154384064,32.34902272110759,"[-97.39796154384065, 32.34902272110759]"
Ceske Budejovice,14.480805636345917,48.97752539472871,"[14.480805636345915, 48.97752539472871]"
Coronel,-73.15875956430978,-36.99293307736469,"[-73.15875956430978, -36.99293307736469]"
Nkhata Bay,34.26458669261644,-11.625830762199662,"[34.26458669261644, -11.625830762199662]"
Quillota,-71.24688771306835,-32.88873769803285,"[-71.24688771306835, -32.88873769803285]"
Emden,7.198356731793946,53.36665764788391,"[7.198356731793946, 53.36665764788391]"
Mafetang,27.23369054876891,-29.81231902784485,"[27.23369054876891, -29.812319027844854]"
Rio Negro,-49.80156967641231,-26.11527580856045,"[-49.80156967641231, -26.115275808560455]"
Nakhon Phanom,104.77210105842586,17.40227739128877,"[104.77210105842586, 17.40227739128877]"
Tiarat,1.319831929247359,35.360329540304164,"[1.319831929247359, 35.360329540304164]"
Iguatu,-39.307216481338095,-6.344815455389365,"[-39.307216481338095, -6.344815455389365]"
Kislovodsk,42.7151333093067,43.918636518067416,"[42.7151333093067, 43.918636518067416]"
Santana do Livramento,-55.5183059933666,-30.87865058208749,"[-55.518305993366596, -30.87865058208749]"
Tebessa,8.111338656646733,35.41133209906667,"[8.111338656646733, 35.41133209906667]"
Laurel,-89.14340820236015,31.699993197506377,"[-89.14340820236015, 31.699993197506377]"
Madisonville,-87.4948551555982,37.33275450076048,"[-87.4948551555982, 37.33275450076048]"
Teluk Intan,101.02997867265076,4.01087310861812,"[101.02997867265077, 4.01087310861812]"
Timon,-42.83301938861045,-5.094339503860734,"[-42.83301938861045, -5.094339503860734]"
Novotroitsk,58.33133569809022,51.21429542453322,"[58.33133569809022, 51.21429542453322]"
Michurinsk,40.49522470929013,52.899753335031285,"[40.49522470929013, 52.899753335031285]"
Mityana,32.03810983635033,0.3838410495300581,"[32.03810983635033, 0.38384104953005815]"
Tetovo,21.01033281440208,42.041124436595545,"[21.010332814402073, 42.041124436595545]"
Catalao,-47.94033963677968,-18.1681800745419,"[-47.940339636779676, -18.1681800745419]"
Harrisonburg,-78.87177652525722,38.44001396341422,"[-78.87177652525722, 38.44001396341422]"
Zrenjanin,20.39781072782125,45.372664915744224,"[20.397810727821255, 45.372664915744224]"
Valera,-70.60009767689216,9.322188160384638,"[-70.60009767689216, 9.322188160384638]"
Marion,-85.66855767674946,40.54976788028607,"[-85.66855767674946, 40.54976788028607]"
Waycross,-82.35637660375066,31.21607079030117,"[-82.35637660375066, 31.216070790301174]"
Gyumri,43.85128926106923,40.79143715487373,"[43.85128926106923, 40.79143715487373]"
Qal at Bishah,42.61138582753991,20.01453205348685,"[42.611385827539905, 20.014532053486846]"
Banska Bystrica,19.14764971658275,48.73710568067799,"[19.14764971658275, 48.73710568067799]"
Santa Ines,-45.36964267997566,-3.659325569237822,"[-45.36964267997566, -3.659325569237822]"
Polatsk,28.784755824057065,55.48795190872918,"[28.784755824057065, 55.48795190872918]"
Rotorua,176.247722018709,-38.13875899373209,"[176.247722018709, -38.13875899373209]"
Tidore,127.40317677829104,0.6595217106446433,"[127.40317677829104, 0.6595217106446433]"
Itanhaem,-46.82262385768132,-24.19655975880671,"[-46.822623857681315, -24.19655975880671]"
Olavarria,-60.31558735728915,-36.89737449014128,"[-60.31558735728915, -36.897374490141274]"
Sidi bel Abbes,-0.6206745470168863,35.19567425696388,"[-0.6206745470168863, 35.19567425696388]"
Subotica,19.664788460419,46.09945750478965,"[19.664788460418993, 46.09945750478965]"
Tulare,-119.3428438460336,36.20557917151843,"[-119.3428438460336, 36.20557917151843]"
Gyeongju,129.21768721446182,35.853688699461024,"[129.21768721446182, 35.853688699461024]"
Khujayli,59.45190442889236,42.41843008943659,"[59.451904428892355, 42.41843008943659]"
Sao Joao da Boa Vista,-46.794238374998734,-21.97703995141369,"[-46.794238374998734, -21.977039951413694]"
Ciudad Valles,-99.00724580938866,21.991848307485416,"[-99.00724580938866, 21.991848307485416]"
Orangeburg,-80.8506398696747,33.5009577482891,"[-80.8506398696747, 33.5009577482891]"
Villa Carlos Paz,-64.50317731632505,-31.42965000561256,"[-64.50317731632505, -31.42965000561256]"
Slupsk,17.020042319888017,54.46868839257071,"[17.020042319888017, 54.46868839257071]"
Tupa,-50.52373244225764,-21.92735425008796,"[-50.52373244225764, -21.92735425008796]"
Inowroclaw,18.2587361239559,52.78361531009992,"[18.2587361239559, 52.78361531009992]"
Buzau,26.817562218778782,45.15949168376378,"[26.817562218778782, 45.15949168376378]"
Pakokku,95.09456137332803,21.34963635027534,"[95.09456137332805, 21.34963635027534]"
Ukhta,53.71499560402008,63.57606507088136,"[53.714995604020075, 63.57606507088136]"
Surin,103.50027696210569,14.89638710427158,"[103.50027696210567, 14.896387104271579]"
Greenock,-4.758644292598864,55.94014473813254,"[-4.758644292598864, 55.94014473813254]"
Bila Tserkva,30.11740960730297,49.800735292006486,"[30.117409607302974, 49.800735292006486]"
Itapetininga,-48.04770178947774,-23.58749849841741,"[-48.04770178947774, -23.58749849841741]"
Baranavichy,26.01820085574696,53.12871099237883,"[26.018200855746958, 53.12871099237883]"
Sao Joao del Rei,-44.24461484337769,-21.125692243827213,"[-44.24461484337769, -21.125692243827213]"
Sibiu,24.150259419091853,45.790494024513045,"[24.150259419091853, 45.790494024513045]"
Tengchong,98.49770677257068,25.0386872118452,"[98.49770677257068, 25.038687211845193]"
San Martin1,-68.5066939384984,-33.07067959309888,"[-68.5066939384984, -33.07067959309888]"
Lumberton,-79.01743902751562,34.630864430417994,"[-79.01743902751562, 34.630864430417994]"
Suileng,127.12149437442363,47.23891124233617,"[127.12149437442363, 47.23891124233617]"
Erechim,-52.26691101280544,-27.643382409187065,"[-52.266911012805444, -27.643382409187062]"
Qyzylorda,65.49675370747269,44.85494391622172,"[65.49675370747269, 44.85494391622172]"
Zanjan,48.492472672237945,36.67755657186209,"[48.492472672237945, 36.67755657186209]"
Paranagua,-48.53915838346333,-25.53932820862302,"[-48.539158383463324, -25.53932820862302]"
Sanandaj,46.99522962445226,35.302644427842026,"[46.99522962445226, 35.302644427842026]"
Szombathely,16.629926310768163,47.22866458024559,"[16.629926310768163, 47.22866458024559]"
Los Teques,-66.99696394396477,10.448069067546474,"[-66.99696394396477, 10.448069067546474]"
Lake City,-82.64503377687046,30.1887819516468,"[-82.64503377687046, 30.188781951646796]"
Algeciras,-5.447607884464451,36.15099456533809,"[-5.447607884464451, 36.15099456533809]"
Tres Lagoas,-51.70083318412337,-20.788332789833287,"[-51.70083318412337, -20.788332789833287]"
Juliaca,-70.1309021072393,-15.48611056186257,"[-70.1309021072393, -15.48611056186257]"
Korhogo,-5.630230932159403,9.457536419129744,"[-5.630230932159403, 9.457536419129744]"
Kamyanets-Podilskyy,26.575477971751315,48.679994898237375,"[26.575477971751315, 48.679994898237375]"
Passos,-46.60683482589612,-20.721831567294288,"[-46.606834825896115, -20.721831567294288]"
Jaboticabal,-48.32116776712374,-21.25316784473124,"[-48.32116776712374, -21.253167844731237]"
Oruro,-67.10518657329257,-17.966411198231697,"[-67.10518657329257, -17.966411198231697]"
Sabanalarga,-74.91961675436515,10.646698591530166,"[-74.91961675436515, 10.646698591530166]"
Al Jahra,47.683576211975485,29.32727688528076,"[47.683576211975485, 29.327276885280757]"
Portoviejo,-80.46427275702224,-1.052570724843029,"[-80.46427275702224, -1.052570724843029]"
Gafsa,8.791448738765977,34.41337817773103,"[8.791448738765977, 34.41337817773103]"
Sassari,8.551215481428807,40.73346885718382,"[8.551215481428807, 40.73346885718382]"
Crestview,-86.56419973930244,30.74968509894997,"[-86.56419973930244, 30.74968509894997]"
Araguari,-48.18966782506195,-18.64883351971039,"[-48.18966782506195, -18.64883351971039]"
Isparta,30.55580691362591,37.76891909722943,"[30.55580691362591, 37.76891909722943]"
Ad Diwaniyah,44.92624614314735,31.989107154057223,"[44.92624614314735, 31.989107154057226]"
Barretos,-48.56903766321524,-20.55351163638407,"[-48.56903766321524, -20.55351163638407]"
Manhattan,-96.58924693822668,39.19475580594979,"[-96.58924693822668, 39.19475580594979]"
Neyshabur,58.79329368577741,36.20232851084234,"[58.79329368577741, 36.20232851084234]"
Bugulma,52.79809869516917,54.54304928379018,"[52.79809869516917, 54.54304928379018]"
Tubarao,-49.01774509423998,-28.47700518467643,"[-49.01774509423998, -28.47700518467643]"
Kansk,95.71599220379892,56.20958909342705,"[95.71599220379893, 56.20958909342705]"
Panevezy,24.35535619715844,55.73571373589264,"[24.355356197158436, 55.73571373589264]"
Orillia,-79.42630059719562,44.61423761938281,"[-79.42630059719562, 44.61423761938281]"
Mawlamyine,97.65166237949032,16.484166436703653,"[97.65166237949033, 16.484166436703653]"
Butuan,125.53409722446474,8.945835582637306,"[125.53409722446474, 8.945835582637306]"
Tandil,-59.13777233448626,-37.31330629898648,"[-59.13777233448626, -37.313306298986475]"
Pirapora,-44.935700102708736,-17.346812636680404,"[-44.935700102708736, -17.346812636680404]"
Bello,-75.5488854787412,6.329100329960108,"[-75.5488854787412, 6.329100329960108]"
Carlisle,-2.936415214647552,54.89484794378272,"[-2.936415214647552, 54.894847943782715]"
Sheboygan,-87.73239965425203,43.74545054584125,"[-87.73239965425203, 43.74545054584125]"
Yanbu al Bahr,38.079015738402205,24.08811808379904,"[38.079015738402205, 24.08811808379904]"
Guanare,-69.75633248843849,9.04933574130413,"[-69.75633248843849, 9.04933574130413]"
Az Zawiyah,12.704601456407492,32.76250193157485,"[12.704601456407492, 32.76250193157485]"
Kecskemet,19.68391340079489,46.90555464787531,"[19.68391340079489, 46.90555464787531]"
El Jadida,-8.499221765634477,33.23185107175239,"[-8.499221765634477, 33.23185107175239]"
La Grange,-85.03058622009684,33.038907263476425,"[-85.03058622009684, 33.038907263476425]"
Wloclawek,19.04723771218844,52.66593488588533,"[19.04723771218844, 52.66593488588533]"
Tuquerres,-77.5919211855283,1.0725346420001265,"[-77.5919211855283, 1.0725346420001265]"
Anaco,-64.46429883084396,9.434068083219907,"[-64.46429883084396, 9.434068083219909]"
Avare,-48.925616907257904,-23.09706685323868,"[-48.925616907257904, -23.097066853238676]"
Ponta Pora,-55.717856374013735,-22.53460868556035,"[-55.717856374013735, -22.53460868556035]"
Bataysk,39.72996446683266,47.13851191551512,"[39.72996446683266, 47.13851191551512]"
Arapongas,-51.43310843933713,-23.407040234972147,"[-51.43310843933713, -23.407040234972147]"
Springfield5,-122.97902259761968,44.05252707454319,"[-122.97902259761968, 44.05252707454319]"
San Marcos,-97.94037741609051,29.879165144560307,"[-97.94037741609051, 29.879165144560307]"
Apucarana,-51.45128650647976,-23.546891635727142,"[-51.451286506479754, -23.546891635727142]"
Bojnurd,57.32718145029863,37.47387499634892,"[57.327181450298625, 37.47387499634892]"
New Iberia,-91.80574574513658,30.001293435464284,"[-91.80574574513658, 30.001293435464284]"
Mankato,-94.00428398536458,44.16773831852765,"[-94.00428398536458, 44.16773831852765]"
Caloundra,153.1170284000103,-26.7838062756021,"[153.1170284000103, -26.7838062756021]"
Joliette,-73.44836101489933,46.03645040748038,"[-73.44836101489933, 46.03645040748038]"
Manpo,126.25016449879033,41.14546348492389,"[126.25016449879031, 41.145463484923894]"
Cape Girardeau,-89.5524988501876,37.31467696983369,"[-89.5524988501876, 37.31467696983369]"
Kutahya,29.988768068869977,39.42765276189649,"[29.988768068869977, 39.42765276189649]"
Temuco,-72.58466650966889,-38.728011384222135,"[-72.58466650966889, -38.728011384222135]"
Volos,22.935227787215595,39.37399224926944,"[22.935227787215595, 39.37399224926944]"
Kashmar,58.4664692919094,35.22731323338476,"[58.4664692919094, 35.22731323338476]"
Batu Pahat,102.94679276004211,1.8610579072550923,"[102.94679276004213, 1.8610579072550923]"
Balakovo,47.797134844978416,52.01118240479042,"[47.797134844978416, 52.01118240479042]"
Leninsk Kuznetsky,86.18635818242255,54.66636744940973,"[86.18635818242255, 54.666367449409734]"
Keluang,103.3368578722432,2.0415069612724928,"[103.3368578722432, 2.0415069612724928]"
Kolomna,38.79876219151427,55.08384613458725,"[38.79876219151427, 55.08384613458725]"
Rio Cuarto,-64.3466392064243,-33.12365432641521,"[-64.3466392064243, -33.12365432641521]"
Itabuna,-39.26558441792786,-14.792591385334203,"[-39.26558441792786, -14.792591385334205]"
New Braunfels,-98.1234306403966,29.69856518262369,"[-98.12343064039659, 29.698565182623692]"
Arzamas,43.82317679241858,55.406421531496754,"[43.82317679241858, 55.406421531496754]"
Cartago1,-83.92617896327634,9.864544172537576,"[-83.92617896327634, 9.864544172537576]"
Hopkinsville,-87.49040216760282,36.85744802446536,"[-87.49040216760282, 36.857448024465356]"
Farmington,-108.18481606543764,36.746857173276936,"[-108.18481606543763, 36.746857173276936]"
Guliston,68.77591634276436,40.49534114200164,"[68.77591634276436, 40.49534114200164]"
Olomouc,17.25073886045537,49.59999549426165,"[17.25073886045537, 49.59999549426165]"
Novocherkassk,40.0896638448487,47.44970321931692,"[40.0896638448487, 47.44970321931692]"
Qingan,127.48399952903354,46.87675771457536,"[127.48399952903354, 46.87675771457536]"
Ornskoldsvik,18.684361143079727,63.29127411179211,"[18.684361143079727, 63.29127411179211]"
Siauliai,23.309272574467368,55.92941854848433,"[23.309272574467368, 55.92941854848433]"
Gorzow Wielkopolski,15.235152547318734,52.736094493503934,"[15.235152547318734, 52.736094493503934]"
Coburg,10.98043765946467,50.2612959111329,"[10.98043765946467, 50.2612959111329]"
Iskandar,69.70736482733366,41.551576659118126,"[69.70736482733366, 41.551576659118126]"
Guarapuava,-51.47206215618283,-25.3828525371019,"[-51.47206215618283, -25.3828525371019]"
Conselheiro Lafaiete,-43.78961817968828,-20.662357041542386,"[-43.789618179688276, -20.662357041542382]"
Partizansk,133.13715715078453,43.134273292504965,"[133.13715715078453, 43.134273292504965]"
Vitoria2,-2.673392268439574,42.864161926971626,"[-2.673392268439574, 42.864161926971626]"
San Pablo,121.32536685212844,14.069808191344958,"[121.32536685212844, 14.069808191344958]"
Sergiyev Posad,38.140536426687135,56.296252523203655,"[38.140536426687135, 56.296252523203655]"
Jaltipan,-94.68513909162444,17.978225904898927,"[-94.68513909162444, 17.978225904898927]"
Keffi,7.851343550435447,8.852231510994184,"[7.851343550435447, 8.852231510994184]"
Zanesville,-82.00838962898696,39.94993252717602,"[-82.00838962898696, 39.949932527176024]"
Chester,-2.8847537361249014,53.195371086215154,"[-2.8847537361249014, 53.195371086215154]"
Lancaster2,-82.60322653229208,39.72658695768826,"[-82.60322653229208, 39.72658695768826]"
Santa Cruz do Sul,-52.4300640084532,-29.735059236481167,"[-52.4300640084532, -29.735059236481167]"
Corum,34.946863026368455,40.55542057012732,"[34.946863026368455, 40.55542057012732]"
Sheberghan,65.75006186924647,36.66853711379784,"[65.75006186924647, 36.66853711379784]"
Al Mubarraz,49.5656740445565,25.427092466402968,"[49.5656740445565, 25.427092466402968]"
Liberec,15.059281776026452,50.75908619202506,"[15.059281776026452, 50.75908619202506]"
Itauna,-44.59027423155104,-20.073333671779825,"[-44.59027423155104, -20.073333671779825]"
Richmond3,-84.8927500488981,39.83224994742766,"[-84.8927500488981, 39.83224994742766]"
Drummondville,-72.49331123971449,45.86968700930456,"[-72.49331123971449, 45.869687009304556]"
Borlange,15.433726360481264,60.486241644077694,"[15.433726360481263, 60.486241644077694]"
Qinggang,126.09634352418264,46.687592871284885,"[126.09634352418264, 46.687592871284885]"
Cachoeiro de Itapemirim,-41.12957950554972,-20.84091457449328,"[-41.12957950554972, -20.840914574493276]"
Szekesfehervar,18.419427899335773,47.187696746796135,"[18.419427899335773, 47.187696746796135]"
Anzhero Sudzhensk,86.0311660988108,56.08567091280993,"[86.0311660988108, 56.08567091280993]"
Konotop,33.184526534059515,51.23286844537933,"[33.184526534059515, 51.232868445379324]"
Sumqayt,49.66285647106057,40.57982983502925,"[49.66285647106057, 40.57982983502925]"
Callao,-77.11840768963263,-12.03376261693922,"[-77.11840768963263, -12.033762616939221]"
Sawahlunto,100.7904201726851,-0.6933464711635364,"[100.7904201726851, -0.6933464711635364]"
Ouargla,5.337870428139986,31.94938644669752,"[5.337870428139986, 31.949386446697517]"
Elazig,39.20753855090081,38.66734633467555,"[39.20753855090081, 38.66734633467555]"
Arras,2.7731199346289577,50.289969166339006,"[2.7731199346289577, 50.289969166339006]"
Beer Sheva,34.79301259470191,31.251347362953048,"[34.79301259470191, 31.251347362953048]"
Svetogorsk,28.79648764393936,61.19525589838396,"[28.79648764393936, 61.195255898383955]"
Soubre,-6.581425292769267,5.7944204281773,"[-6.581425292769267, 5.7944204281773]"
Hania,24.03691199957879,35.50926015985187,"[24.03691199957879, 35.50926015985187]"
Plovdiv,24.75583543197657,42.143019540344994,"[24.75583543197657, 42.143019540344994]"
San Juan del Rio,-99.98671977786864,20.40885225627003,"[-99.98671977786864, 20.40885225627003]"
Barra Mansa,-44.17209748001945,-22.544497344457543,"[-44.17209748001945, -22.544497344457543]"
Belleville2,-77.38638485122092,44.18160507611634,"[-77.38638485122092, 44.18160507611634]"
Arad,21.31609468262116,46.179741574346366,"[21.31609468262116, 46.179741574346366]"
Enid,-97.89369365886458,36.40360505072054,"[-97.89369365886458, 36.40360505072054]"
Holguin,-76.25442860020682,20.87695237146434,"[-76.25442860020682, 20.87695237146434]"
Kon Tum,107.99473972366636,14.361268600269542,"[107.99473972366636, 14.361268600269542]"
Karabuk,32.65403503910218,41.22367491312978,"[32.65403503910218, 41.22367491312978]"
Banyuwangi,114.34152914465726,-8.208196766151657,"[114.34152914465726, -8.208196766151657]"
Uzhgorod,22.295180236126992,48.60869851909165,"[22.295180236126992, 48.60869851909165]"
Caboolture,152.95168232542613,-27.08550840486564,"[152.95168232542613, -27.085508404865642]"
Pakwach,31.45930407572712,2.44444483579174,"[31.459304075727122, 2.44444483579174]"
San Luis2,-66.33464170447765,-33.29571601805138,"[-66.33464170447765, -33.29571601805138]"
Yelets,38.52049607274356,52.61358493366738,"[38.520496072743555, 52.61358493366738]"
Hagere Hiywet,37.8748638359501,8.98413980413822,"[37.8748638359501, 8.98413980413822]"
Ar Ramadi,43.296987326942855,33.428937856535484,"[43.296987326942855, 33.428937856535484]"
Williamsport,-77.02237764906911,41.24789083197812,"[-77.02237764906911, 41.24789083197812]"
Drohobych,23.52264616277776,49.32453071198471,"[23.522646162777757, 49.32453071198471]"
Mostaganem,0.0910498337676452,35.9061576195027,"[0.09104983376764521, 35.9061576195027]"
Usolye Sibirskoye,103.63236639085,52.76902532897953,"[103.63236639085, 52.76902532897953]"
Sanliurfa,38.80694443861264,37.16110598112921,"[38.80694443861264, 37.16110598112921]"
Hutchinson,-97.92233134723644,38.06463278410287,"[-97.92233134723644, 38.06463278410287]"
Barbacena,-43.77207666606406,-21.20939200231726,"[-43.77207666606406, -21.20939200231726]"
Meridian,-88.7070252123389,32.38270122950633,"[-88.7070252123389, 32.38270122950633]"
Grand Island,-98.36332076787065,40.9231973755946,"[-98.36332076787063, 40.9231973755946]"
Tatui,-47.8443432333053,-23.34695061786689,"[-47.8443432333053, -23.346950617866895]"
Solikamsk,56.73578034886943,59.66704401230734,"[56.735780348869426, 59.66704401230734]"
Pittsfield,-73.23036743578544,42.456550762945874,"[-73.23036743578544, 42.456550762945874]"
Florence2,-87.66682537598676,34.835221768485816,"[-87.66682537598676, 34.835221768485816]"
Salisbury,-80.47602709259863,35.673536373126346,"[-80.47602709259863, 35.673536373126346]"
Galati,28.01526869167805,45.43990414403368,"[28.01526869167805, 45.439904144033676]"
Kragujevac,20.90090541518981,44.01230732035496,"[20.900905415189815, 44.012307320354964]"
Nakhodka,132.9016195556407,42.82237653132206,"[132.9016195556407, 42.82237653132206]"
San Nicolas,-60.21535963623469,-33.35613484670271,"[-60.21535963623469, -33.35613484670271]"
San Miguel,-88.16480704394712,13.47813832572115,"[-88.16480704394712, 13.47813832572115]"
Slavonski Brod,18.01802234006008,45.14891162053312,"[18.01802234006008, 45.14891162053312]"
Hospet,76.3976985519418,15.279665954414885,"[76.3976985519418, 15.279665954414885]"
Walbrzych,16.270486221368806,50.78418708746529,"[16.270486221368806, 50.78418708746529]"
Brusque,-48.90798272547549,-27.09825685813684,"[-48.90798272547549, -27.09825685813684]"
Tokmak,75.28722207771386,42.83174710709572,"[75.28722207771386, 42.83174710709572]"
Khmelnytskyy,26.988184366179564,49.41906455372398,"[26.988184366179564, 49.41906455372398]"
Kasulu,30.12695315818621,-4.622653909859535,"[30.126953158186218, -4.622653909859535]"
Wiener,16.24890563788221,47.82791682251578,"[16.24890563788221, 47.82791682251578]"
Girardot,-74.80290574909226,4.323734841288618,"[-74.80290574909226, 4.323734841288618]"
Valledupar,-73.25820640702307,10.47613429824082,"[-73.25820640702307, 10.47613429824082]"
Sibu,111.8449360554539,2.2877548387421767,"[111.8449360554539, 2.2877548387421767]"
Xapeco,-52.62838184388163,-27.09797165241707,"[-52.62838184388163, -27.09797165241707]"
Maykop,40.10425630593045,44.60515648178042,"[40.10425630593045, 44.60515648178042]"
Az Aubayr,47.70582181312616,30.38255370117609,"[47.70582181312616, 30.38255370117609]"
Kineshma,42.13876805620109,57.44947590009041,"[42.138768056201094, 57.44947590009041]"
Reggio di Calabria,15.658212120230326,38.12030892673978,"[15.658212120230326, 38.12030892673978]"
Tarbes,0.0664342992861004,43.22897936480688,"[0.06643429928610048, 43.22897936480688]"
Phan Rang,108.98190519108437,11.580783121797571,"[108.98190519108437, 11.580783121797573]"
Thies,-16.924335105788227,14.792932250787166,"[-16.924335105788227, 14.792932250787166]"
Chapayevsk,49.719272919140025,52.979069241547336,"[49.719272919140025, 52.979069241547336]"
San Salvador de Jujuy,-65.2875088337025,-24.20245250443616,"[-65.2875088337025, -24.20245250443616]"
Talcahuano,-73.11846704482257,-36.74870391247921,"[-73.11846704482257, -36.74870391247921]"
Al-Qatif,50.00661953202065,26.52260229940073,"[50.00661953202065, 26.522602299400734]"
